"City","State","TAWSuffix","StreetAddress","Zip","AUTO_UNIQUE_ID_2019-01-08_njbell89_field_site_corr","Source","TimeTaken","UpdatedGeocoding","Version","ErrorMessage","TransactionId","naaccrQualCode","naaccrQualType","FeatureMatchingResultType","MatchedLocationType","RegionSizeUnits","InterpolationType","RegionSize","InterpolationSubType","FeatureMatchingGeographyType","MatchScore","FeatureMatchingHierarchy","TieHandlingStrategyType","FeatureMatchingResultTypeTieBreakingNotes","GeocodeQualityType","FeatureMatchingHierarchyNotes","FeatureMatchingResultTypeNotes","FeatureMatchingResultCount","Latitude","Longitude","MatchType","CensusYear","CensusPlaceFips","CensusMsaFips","CensusMetDivFips","CensusMcdFips","CensusCbsaMicro","CensusCbsaFips","CensusBlock","CensusBlockGroup","CensusTract","CensusCountyFips","CensusStateFips","naaccrCertCode","naaccrCertType"
"Waukesha","WA","74895C","","",1,"USCGeocoder",156.294,1,"4.1","","","12","CountyCentroid","BrokenTie","LOCATION_TYPE_CITY","Meters","ArealInterpolation","16944224081.2107","ArealInterpolationGeometricCentroid","County","40","FeatureClassBased","FlipACoin","","CountyCentroid","","","4",40.6654177867063,-119.664296586896,"Relaxed;Soundex","TwoThousandTen","","","","","","","","","","031","","9","Missing"
"Abbott Park","IL","91684","","",2,"USCGeocoder",46.8871,1,"4.1","","","","Unknown","Unmatchable","LOCATION_TYPE_UNKNOWN","Unknown","NotAttempted","-1","NotAttempted","Unmatchable","0","FeatureClassBased","Unknown","","Unmatchable","","","0",0,0,"","","","","","","","","","","","","","",""
"Abbott Park","IL","75274","","",3,"USCGeocoder",62.5016,1,"4.1","","","","Unknown","Unmatchable","LOCATION_TYPE_UNKNOWN","Unknown","NotAttempted","-1","NotAttempted","Unmatchable","0","FeatureClassBased","Unknown","","Unmatchable","","","0",0,0,"","","","","","","","","","","","","","",""
"Acton","MA","82363","","",4,"USCGeocoder",93.7579,1,"4.1","","","12","CountyCentroid","Success","LOCATION_TYPE_CITY","Meters","ArealInterpolation","52566039.7868838","ArealInterpolationGeometricCentroid","CountySubRegion","40","FeatureClassBased","FlipACoin","","CountySubdivisionCentroid","","","1",42.4843029809997,-71.4377758016131,"Relaxed;Soundex","TwoThousandTen","","0740","15764","00380","0","14460","2016","2","3631.03","017","25","9","Missing"
"Acton","MA","81503","","",5,"USCGeocoder",15.6275,1,"4.1","","","12","CountyCentroid","Success","LOCATION_TYPE_CITY","Meters","ArealInterpolation","52566039.7868838","ArealInterpolationGeometricCentroid","CountySubRegion","40","FeatureClassBased","FlipACoin","","CountySubdivisionCentroid","","","1",42.4843029809997,-71.4377758016131,"Relaxed;Soundex","TwoThousandTen","","0740","15764","00380","0","14460","2016","2","3631.03","017","25","9","Missing"
"Ada","MI","81441A","","",6,"USCGeocoder",46.7083,1,"4.1","","","11","CityCentroid","BrokenTie","LOCATION_TYPE_CITY","Meters","ArealInterpolation","1340721.80065727","ArealInterpolationGeometricCentroid","City","10","FeatureClassBased","FlipACoin","","CityCentroid","","","3",41.9708269978172,-84.5252661688511,"Relaxed;Soundex","TwoThousandTen","57920","","","00300","","","1036","1","0506.00","059","26","6","ResidenceCityOrZIPWithOneCensusTract"
"Ada","MI","73420A","","",7,"USCGeocoder",15.7837,1,"4.1","","","11","CityCentroid","BrokenTie","LOCATION_TYPE_CITY","Meters","ArealInterpolation","1340721.80065727","ArealInterpolationGeometricCentroid","City","10","FeatureClassBased","FlipACoin","","CityCentroid","","","3",41.9708269978172,-84.5252661688511,"Relaxed;Soundex","TwoThousandTen","57920","","","00300","","","1036","1","0506.00","059","26","6","ResidenceCityOrZIPWithOneCensusTract"
"Afton","MI","65554","","",8,"USCGeocoder",46.9485,1,"4.1","","","","Unknown","Unmatchable","LOCATION_TYPE_UNKNOWN","Unknown","NotAttempted","-1","NotAttempted","Unmatchable","0","FeatureClassBased","Unknown","","Unmatchable","","","0",0,0,"","","","","","","","","","","","","","",""
"Afton","VA","64108A","","",9,"USCGeocoder",109.4034,1,"4.1","","","","Unknown","Unmatchable","LOCATION_TYPE_UNKNOWN","Unknown","NotAttempted","-1","NotAttempted","Unmatchable","0","FeatureClassBased","Unknown","","Unmatchable","","","0",0,0,"","","","","","","","","","","","","","",""
"Albaquerque","NM","73676N","","",10,"USCGeocoder",265.7089,1,"4.1","","","11","CityCentroid","Success","LOCATION_TYPE_CITY","Meters","ArealInterpolation","490920951","ArealInterpolationGeometricCentroid","City","46.3636363636364","FeatureClassBased","FlipACoin","","CityCentroid","","","1",35.1055517,-106.6473884,"Relaxed;Soundex","TwoThousandTen","","0200","","90060","0","10740","1030","1","0027.00","001","35","9","Missing"
"Allentown","PA","73711","","",11,"USCGeocoder",109.3468,1,"4.1","","","11","CityCentroid","Success","LOCATION_TYPE_CITY","Meters","ArealInterpolation","46683430.5247518","ArealInterpolationGeometricCentroid","City","50","FeatureClassBased","FlipACoin","","CityCentroid","","","1",40.5961002734109,-75.4755383262323,"Relaxed;Soundex","TwoThousandTen","02000","0240","","02000","0","10900","1001","1","0014.01","077","42","9","Missing"
"Allso Viejo","CA","71881","","",12,"USCGeocoder",93.7493,1,"4.1","","","11","CityCentroid","Success","LOCATION_TYPE_CITY","Meters","ArealInterpolation","19352002.7094561","ArealInterpolationGeometricCentroid","City","10","FeatureClassBased","FlipACoin","","CityCentroid","","","1",33.5779352515182,-117.72995207391,"Relaxed;Soundex","TwoThousandTen","00947","4472","42044","93110","0","31100","1011","1","0626.37","059","06","9","Missing"
"Alpharette","GA","72877O","","",13,"USCGeocoder",78.0025,1,"4.1","","","11","CityCentroid","Success","LOCATION_TYPE_CITY","Meters","ArealInterpolation","70665971.7862036","ArealInterpolationGeometricCentroid","City","46","FeatureClassBased","FlipACoin","","CityCentroid","","","1",34.0703826754142,-84.2738277601601,"Relaxed;Soundex","TwoThousandTen","01696","0520","","92604","0","12060","3000","3","0116.16","121","13","9","Missing"
"Amesbury","MA","74133","","",14,"USCGeocoder",78.1239,1,"4.1","","","11","CityCentroid","Success","LOCATION_TYPE_CITY","Meters","ArealInterpolation","35546675.9714711","ArealInterpolationGeometricCentroid","City","50","FeatureClassBased","FlipACoin","","CityCentroid","","","1",42.852941547183,-70.9446000379271,"Relaxed;Soundex","TwoThousandTen","01260","1122","37764","01260","0","14460","3000","3","2661.00","009","25","9","Missing"
"Amherst","NY","71008","","",15,"USCGeocoder",78.1452,1,"4.1","","","12","CountyCentroid","Success","LOCATION_TYPE_CITY","Meters","ArealInterpolation","138807110.866554","ArealInterpolationGeometricCentroid","CountySubRegion","40","FeatureClassBased","FlipACoin","","CountySubdivisionCentroid","","","1",43.0116841755868,-78.7569393275976,"Relaxed;Soundex","TwoThousandTen","","0160","","02000","0","15380","2028","2","0091.13","029","36","9","Missing"
"Ancram","NY","82718","","",16,"USCGeocoder",46.9754,1,"4.1","","","12","CountyCentroid","Success","LOCATION_TYPE_CITY","Meters","ArealInterpolation","110690280.916845","ArealInterpolationGeometricCentroid","CountySubRegion","40","FeatureClassBased","FlipACoin","","CountySubdivisionCentroid","","","1",42.0351970181562,-73.5822011549085,"Relaxed;Soundex","TwoThousandTen","","0160","","02099","1","26460","2009","2","0017.00","021","36","9","Missing"
"Andover","ME","70021","","",17,"USCGeocoder",31.2476,1,"4.1","","","12","CountyCentroid","Success","LOCATION_TYPE_CITY","Meters","ArealInterpolation","148814056.645048","ArealInterpolationGeometricCentroid","CountySubRegion","40","FeatureClassBased","FlipACoin","","CountySubdivisionCentroid","","","1",44.6193754011666,-70.7589491377878,"Relaxed;Soundex","TwoThousandTen","","0730","","01325","","","3023","3","9651.00","017","23","9","Missing"
"Arden","NC","70248","","",18,"USCGeocoder",140.6,1,"4.1","","","11","CityCentroid","Success","LOCATION_TYPE_CITY","Meters","ArealInterpolation","39873633.2964211","ArealInterpolationGeometricCentroid","City","10","FeatureClassBased","FlipACoin","","CityCentroid","","","1",35.9591407094109,-79.7597948532302,"Relaxed;Soundex","TwoThousandTen","52760","3120","","91096","0","24660","1007","1","0169.00","081","37","9","Missing"
"Arden","NC","70841","","",19,"USCGeocoder",15.6209,1,"4.1","","","11","CityCentroid","Success","LOCATION_TYPE_CITY","Meters","ArealInterpolation","39873633.2964211","ArealInterpolationGeometricCentroid","City","10","FeatureClassBased","FlipACoin","","CityCentroid","","","1",35.9591407094109,-79.7597948532302,"Relaxed;Soundex","TwoThousandTen","52760","3120","","91096","0","24660","1007","1","0169.00","081","37","9","Missing"
"Arden","NC","73400","","",20,"USCGeocoder",0,1,"4.1","","","11","CityCentroid","Success","LOCATION_TYPE_CITY","Meters","ArealInterpolation","39873633.2964211","ArealInterpolationGeometricCentroid","City","10","FeatureClassBased","FlipACoin","","CityCentroid","","","1",35.9591407094109,-79.7597948532302,"Relaxed;Soundex","TwoThousandTen","52760","3120","","91096","0","24660","1007","1","0169.00","081","37","9","Missing"
"Astoria","NY","74138","","",21,"USCGeocoder",62.5026,1,"4.1","","","12","CountyCentroid","Success","LOCATION_TYPE_CITY","Meters","ArealInterpolation","126427124.883393","ArealInterpolationGeometricCentroid","CountySubRegion","40","FeatureClassBased","FlipACoin","","CountySubdivisionCentroid","","","1",42.3123914119939,-73.5076177938403,"Relaxed;Soundex","TwoThousandTen","","0160","","03287","1","26460","2001","2","0008.00","021","36","9","Missing"
"Atlantic Heights","NJ","71064B","","",22,"USCGeocoder",93.7428,1,"4.1","","","11","CityCentroid","Success","LOCATION_TYPE_CITY","Meters","ArealInterpolation","44124630.8284984","ArealInterpolationGeometricCentroid","City","50","FeatureClassBased","FlipACoin","","CityCentroid","","","1",39.3773215358766,-74.4512438359671,"Relaxed;Soundex","TwoThousandTen","02080","6162","","02080","0","12100","1008","1","0013.00","001","34","9","Missing"
"Auburn","MA","71272A","","",23,"USCGeocoder",78.1149,1,"4.1","","","12","CountyCentroid","Success","LOCATION_TYPE_CITY","Meters","ArealInterpolation","42507784.8192381","ArealInterpolationGeometricCentroid","CountySubRegion","40","FeatureClassBased","FlipACoin","","CountySubdivisionCentroid","","","1",42.1972404416207,-71.8452722067299,"Relaxed;Soundex","TwoThousandTen","","0740","","02760","0","49340","2018","2","7363.00","027","25","9","Missing"
"Avon","MA","90166","","",24,"USCGeocoder",140.9041,1,"4.1","","","12","CountyCentroid","Success","LOCATION_TYPE_CITY","Meters","ArealInterpolation","11752181.8632931","ArealInterpolationGeometricCentroid","CountySubRegion","40","FeatureClassBased","FlipACoin","","CountySubdivisionCentroid","","","1",42.1266622624386,-71.0492457078652,"Relaxed;Soundex","TwoThousandTen","","0740","14484","02935","0","14460","1003","1","4571.00","021","25","9","Missing"
"Avon","MA","90166A","","",25,"USCGeocoder",15.5334,1,"4.1","","","12","CountyCentroid","Success","LOCATION_TYPE_CITY","Meters","ArealInterpolation","11752181.8632931","ArealInterpolationGeometricCentroid","CountySubRegion","40","FeatureClassBased","FlipACoin","","CountySubdivisionCentroid","","","1",42.1266622624386,-71.0492457078652,"Relaxed;Soundex","TwoThousandTen","","0740","14484","02935","0","14460","1003","1","4571.00","021","25","9","Missing"
"Bagdad","PA","91279","","",26,"USCGeocoder",62.4392,1,"4.1","","","","Unknown","Unmatchable","LOCATION_TYPE_UNKNOWN","Unknown","NotAttempted","-1","NotAttempted","Unmatchable","0","FeatureClassBased","Unknown","","Unmatchable","","","0",0,0,"","","","","","","","","","","","","","",""
"Bardentown","KY","72161","","",27,"USCGeocoder",62.1924,1,"4.1","","","12","CountyCentroid","BrokenTie","LOCATION_TYPE_CITY","Meters","ArealInterpolation","2332632330.85438","ArealInterpolationGeometricCentroid","County","40","FeatureClassBased","FlipACoin","","CountyCentroid","","","2",38.4789639702144,-98.7564642915873,"Relaxed;Soundex","TwoThousandTen","","","","","","","","","","009","","9","Missing"
"Beaver","WA","85482","","",28,"USCGeocoder",62.6721,1,"4.1","","","12","CountyCentroid","Success","LOCATION_TYPE_CITY","Meters","ArealInterpolation","4707325744.91078","ArealInterpolationGeometricCentroid","County","40","FeatureClassBased","FlipACoin","","CountyCentroid","","","1",36.7496898104771,-100.476772907856,"Relaxed;Soundex","TwoThousandTen","","","","","","","","","","007","","9","Missing"
"Bedford","MA","91084","","",29,"USCGeocoder",62.5142,1,"4.1","","","11","CityCentroid","Success","LOCATION_TYPE_CITY","Meters","ArealInterpolation","62500245.6780272","ArealInterpolationGeometricCentroid","City","46","FeatureClassBased","FlipACoin","","CityCentroid","","","1",41.6614904469044,-70.9381964065548,"Relaxed;Soundex","TwoThousandTen","45000","1122","","45000","0","39300","1003","1","6509.00","005","25","9","Missing"
"Bedford","MA","74397","","",30,"USCGeocoder",0,1,"4.1","","","11","CityCentroid","Success","LOCATION_TYPE_CITY","Meters","ArealInterpolation","62500245.6780272","ArealInterpolationGeometricCentroid","City","46","FeatureClassBased","FlipACoin","","CityCentroid","","","1",41.6614904469044,-70.9381964065548,"Relaxed;Soundex","TwoThousandTen","45000","1122","","45000","0","39300","1003","1","6509.00","005","25","9","Missing"
"Bedford","MA","91582","","",31,"USCGeocoder",0,1,"4.1","","","11","CityCentroid","Success","LOCATION_TYPE_CITY","Meters","ArealInterpolation","62500245.6780272","ArealInterpolationGeometricCentroid","City","46","FeatureClassBased","FlipACoin","","CityCentroid","","","1",41.6614904469044,-70.9381964065548,"Relaxed;Soundex","TwoThousandTen","45000","1122","","45000","0","39300","1003","1","6509.00","005","25","9","Missing"
"Bedford","NH","81516","","",32,"USCGeocoder",62.6118,1,"4.1","","","12","CountyCentroid","Success","LOCATION_TYPE_CITY","Meters","ArealInterpolation","85775022.9444194","ArealInterpolationGeometricCentroid","CountySubRegion","40","FeatureClassBased","FlipACoin","","CountySubdivisionCentroid","","","1",42.9407503147168,-71.5304272327776,"Relaxed;Soundex","TwoThousandTen","","1122","","04500","0","31700","2000","2","0029.03","011","33","9","Missing"
"Bedford","NH","74849U","","",33,"USCGeocoder",15.2356,1,"4.1","","","12","CountyCentroid","Success","LOCATION_TYPE_CITY","Meters","ArealInterpolation","85775022.9444194","ArealInterpolationGeometricCentroid","CountySubRegion","40","FeatureClassBased","FlipACoin","","CountySubdivisionCentroid","","","1",42.9407503147168,-71.5304272327776,"Relaxed;Soundex","TwoThousandTen","","1122","","04500","0","31700","2000","2","0029.03","011","33","9","Missing"
"Belding","MS","85684","","",34,"USCGeocoder",46.9014,1,"4.1","","","11","CityCentroid","BrokenTie","LOCATION_TYPE_CITY","Meters","ArealInterpolation","30149599.8926122","ArealInterpolationGeometricCentroid","City","27.1428571428571","FeatureClassBased","FlipACoin","","CityCentroid","","","2",34.5071082439843,-88.6416224998563,"Relaxed;Soundex","TwoThousandTen","02700","","","90369","1","46180","3005","3","9501.02","081","28","9","Missing"
"Belmont","MI","82559","","",35,"USCGeocoder",47.0537,1,"4.1","","","11","CityCentroid","Success","LOCATION_TYPE_CITY","Meters","ArealInterpolation","3007612.22957761","ArealInterpolationGeometricCentroid","City","10","FeatureClassBased","FlipACoin","","CityCentroid","","","1",42.3832827626132,-85.9590327057363,"Relaxed;Soundex","TwoThousandTen","09220","3720","","09240","0","28020","1009","1","0101.00","159","26","6","ResidenceCityOrZIPWithOneCensusTract"
"Bensalem","PA","74250","","",36,"USCGeocoder",93.717,1,"4.1","","","12","CountyCentroid","Success","LOCATION_TYPE_CITY","Meters","ArealInterpolation","54206462.2673814","ArealInterpolationGeometricCentroid","CountySubRegion","40","FeatureClassBased","FlipACoin","","CountySubdivisionCentroid","","","1",40.1086058901131,-74.9431060481928,"Relaxed;Soundex","TwoThousandTen","","0240","37964","05616","0","37980","4000","4","1002.08","017","42","9","Missing"
"Berkeley Heights","NJ","64123","","",37,"USCGeocoder",140.4039,1,"4.1","","","11","CityCentroid","Success","LOCATION_TYPE_CITY","Meters","ArealInterpolation","4296527.95612361","ArealInterpolationGeometricCentroid","City","20.6666666666667","FeatureClassBased","FlipACoin","","CityCentroid","","","1",39.9012433256145,-75.0008286991971,"Relaxed;Soundex","TwoThousandTen","02880","6162","15804","12280","0","37980","1003","1","6036.02","007","34","9","Missing"
"Berkeley Heights","NJ","90199","","",38,"USCGeocoder",15.5137,1,"4.1","","","11","CityCentroid","Success","LOCATION_TYPE_CITY","Meters","ArealInterpolation","4296527.95612361","ArealInterpolationGeometricCentroid","City","20.6666666666667","FeatureClassBased","FlipACoin","","CityCentroid","","","1",39.9012433256145,-75.0008286991971,"Relaxed;Soundex","TwoThousandTen","02880","6162","15804","12280","0","37980","1003","1","6036.02","007","34","9","Missing"
"Berlin","CT","83199","","",39,"USCGeocoder",62.5173,1,"4.1","","","12","CountyCentroid","BrokenTie","LOCATION_TYPE_CITY","Meters","ArealInterpolation","78753249.1547455","ArealInterpolationGeometricCentroid","CountySubRegion","40","FeatureClassBased","FlipACoin","","CountySubdivisionCentroid","","","2",41.7597709824308,-72.9589631609051,"Relaxed;Soundex","TwoThousandTen","","1122","","10100","0","25540","3006","3","4101.01","003","09","9","Missing"
"Berlin","CT","71045","","",40,"USCGeocoder",78.1571,1,"4.1","","","12","CountyCentroid","BrokenTie","LOCATION_TYPE_CITY","Meters","ArealInterpolation","69891494.3712246","ArealInterpolationGeometricCentroid","CountySubRegion","40","FeatureClassBased","FlipACoin","","CountySubdivisionCentroid","","","2",41.6113854510244,-72.7758190193233,"Relaxed;Soundex","TwoThousandTen","","1122","","04300","0","25540","2004","2","4002.00","003","09","9","Missing"
"Billerica","MA","70448","","",41,"USCGeocoder",93.6544,1,"4.1","","","12","CountyCentroid","Success","LOCATION_TYPE_CITY","Meters","ArealInterpolation","68145494.9191464","ArealInterpolationGeometricCentroid","CountySubRegion","40","FeatureClassBased","FlipACoin","","CountySubdivisionCentroid","","","1",42.5586728748096,-71.2673021946061,"Relaxed;Soundex","TwoThousandTen","","0740","15764","05805","0","14460","2023","2","3161.02","017","25","9","Missing"
"Billerica","MA","73805","","",42,"USCGeocoder",15.6381,1,"4.1","","","12","CountyCentroid","Success","LOCATION_TYPE_CITY","Meters","ArealInterpolation","68145494.9191464","ArealInterpolationGeometricCentroid","CountySubRegion","40","FeatureClassBased","FlipACoin","","CountySubdivisionCentroid","","","1",42.5586728748096,-71.2673021946061,"Relaxed;Soundex","TwoThousandTen","","0740","15764","05805","0","14460","2023","2","3161.02","017","25","9","Missing"
"Billerica","MA","82449","","",43,"USCGeocoder",15.6203,1,"4.1","","","12","CountyCentroid","Success","LOCATION_TYPE_CITY","Meters","ArealInterpolation","68145494.9191464","ArealInterpolationGeometricCentroid","CountySubRegion","40","FeatureClassBased","FlipACoin","","CountySubdivisionCentroid","","","1",42.5586728748096,-71.2673021946061,"Relaxed;Soundex","TwoThousandTen","","0740","15764","05805","0","14460","2023","2","3161.02","017","25","9","Missing"
"Billerica","MA","74411B","","",44,"USCGeocoder",31.1887,1,"4.1","","","12","CountyCentroid","Success","LOCATION_TYPE_CITY","Meters","ArealInterpolation","68145494.9191464","ArealInterpolationGeometricCentroid","CountySubRegion","40","FeatureClassBased","FlipACoin","","CountySubdivisionCentroid","","","1",42.5586728748096,-71.2673021946061,"Relaxed;Soundex","TwoThousandTen","","0740","15764","05805","0","14460","2023","2","3161.02","017","25","9","Missing"
"Billerica","MA","71123","","",45,"USCGeocoder",15.6441,1,"4.1","","","12","CountyCentroid","Success","LOCATION_TYPE_CITY","Meters","ArealInterpolation","68145494.9191464","ArealInterpolationGeometricCentroid","CountySubRegion","40","FeatureClassBased","FlipACoin","","CountySubdivisionCentroid","","","1",42.5586728748096,-71.2673021946061,"Relaxed;Soundex","TwoThousandTen","","0740","15764","05805","0","14460","2023","2","3161.02","017","25","9","Missing"
"Billerica","MA","81421H","","",46,"USCGeocoder",15.5223,1,"4.1","","","12","CountyCentroid","Success","LOCATION_TYPE_CITY","Meters","ArealInterpolation","68145494.9191464","ArealInterpolationGeometricCentroid","CountySubRegion","40","FeatureClassBased","FlipACoin","","CountySubdivisionCentroid","","","1",42.5586728748096,-71.2673021946061,"Relaxed;Soundex","TwoThousandTen","","0740","15764","05805","0","14460","2023","2","3161.02","017","25","9","Missing"
"Bloomfield","CT","90082","","",47,"USCGeocoder",78.1237,1,"4.1","","","12","CountyCentroid","Success","LOCATION_TYPE_CITY","Meters","ArealInterpolation","67992928.3689035","ArealInterpolationGeometricCentroid","CountySubRegion","40","FeatureClassBased","FlipACoin","","CountySubdivisionCentroid","","","1",41.8425788062894,-72.7406215843476,"Relaxed;Soundex","TwoThousandTen","","1122","","05910","0","25540","1022","1","4714.00","003","09","9","Missing"
"Bloomfield","CT","81470","","",48,"USCGeocoder",0,1,"4.1","","","12","CountyCentroid","Success","LOCATION_TYPE_CITY","Meters","ArealInterpolation","67992928.3689035","ArealInterpolationGeometricCentroid","CountySubRegion","40","FeatureClassBased","FlipACoin","","CountySubdivisionCentroid","","","1",41.8425788062894,-72.7406215843476,"Relaxed;Soundex","TwoThousandTen","","1122","","05910","0","25540","1022","1","4714.00","003","09","9","Missing"
"Bloomfield","CT","64783","","",49,"USCGeocoder",15.6441,1,"4.1","","","12","CountyCentroid","Success","LOCATION_TYPE_CITY","Meters","ArealInterpolation","67992928.3689035","ArealInterpolationGeometricCentroid","CountySubRegion","40","FeatureClassBased","FlipACoin","","CountySubdivisionCentroid","","","1",41.8425788062894,-72.7406215843476,"Relaxed;Soundex","TwoThousandTen","","1122","","05910","0","25540","1022","1","4714.00","003","09","9","Missing"
"Boxborough","MA","71187","","",50,"USCGeocoder",109.3702,1,"4.1","","","11","CityCentroid","Success","LOCATION_TYPE_CITY","Meters","ArealInterpolation","14176108.5056463","ArealInterpolationGeometricCentroid","City","30","FeatureClassBased","FlipACoin","","CityCentroid","","","1",42.6694132937003,-70.9831109797349,"Relaxed;Soundex","TwoThousandTen","07385","1122","37764","07420","0","14460","1049","1","2131.00","009","25","9","Missing"
"Braintree","MA","85967A","","",51,"USCGeocoder",124.9983,1,"4.1","","","11","CityCentroid","Success","LOCATION_TYPE_CITY","Meters","ArealInterpolation","37717781.9060515","ArealInterpolationGeometricCentroid","City","50","FeatureClassBased","FlipACoin","","CityCentroid","","","1",42.2038419151115,-71.0022238077394,"Relaxed;Soundex","TwoThousandTen","07740","1122","14484","07740","0","14460","2038","2","4198.00","021","25","9","Missing"
"Braintree","MA","82772","","",52,"USCGeocoder",15.5938,1,"4.1","","","11","CityCentroid","Success","LOCATION_TYPE_CITY","Meters","ArealInterpolation","37717781.9060515","ArealInterpolationGeometricCentroid","City","50","FeatureClassBased","FlipACoin","","CityCentroid","","","1",42.2038419151115,-71.0022238077394,"Relaxed;Soundex","TwoThousandTen","07740","1122","14484","07740","0","14460","2038","2","4198.00","021","25","9","Missing"
"Braintree","MA","72704","","",53,"USCGeocoder",15.601,1,"4.1","","","11","CityCentroid","Success","LOCATION_TYPE_CITY","Meters","ArealInterpolation","37717781.9060515","ArealInterpolationGeometricCentroid","City","50","FeatureClassBased","FlipACoin","","CityCentroid","","","1",42.2038419151115,-71.0022238077394,"Relaxed;Soundex","TwoThousandTen","07740","1122","14484","07740","0","14460","2038","2","4198.00","021","25","9","Missing"
"Braintree","MA","85967","","",54,"USCGeocoder",15.6207,1,"4.1","","","11","CityCentroid","Success","LOCATION_TYPE_CITY","Meters","ArealInterpolation","37717781.9060515","ArealInterpolationGeometricCentroid","City","50","FeatureClassBased","FlipACoin","","CityCentroid","","","1",42.2038419151115,-71.0022238077394,"Relaxed;Soundex","TwoThousandTen","07740","1122","14484","07740","0","14460","2038","2","4198.00","021","25","9","Missing"
"Branchburg","NJ","74275","","",55,"USCGeocoder",125.0426,1,"4.1","","","11","CityCentroid","Success","LOCATION_TYPE_CITY","Meters","ArealInterpolation","1552630.52992547","ArealInterpolationGeometricCentroid","City","30","FeatureClassBased","FlipACoin","","CityCentroid","","","1",41.1463665689884,-74.7497292136762,"Relaxed;Soundex","TwoThousandTen","07300","5602","35084","07300","0","35620","3006","3","3723.00","037","34","9","Missing"
"Branchburg","NJ","85960B","","",56,"USCGeocoder",31.2222,1,"4.1","","","11","CityCentroid","Success","LOCATION_TYPE_CITY","Meters","ArealInterpolation","1552630.52992547","ArealInterpolationGeometricCentroid","City","30","FeatureClassBased","FlipACoin","","CityCentroid","","","1",41.1463665689884,-74.7497292136762,"Relaxed;Soundex","TwoThousandTen","07300","5602","35084","07300","0","35620","3006","3","3723.00","037","34","9","Missing"
"Branchburg","NJ","74275A","","",57,"USCGeocoder",15.7015,1,"4.1","","","11","CityCentroid","Success","LOCATION_TYPE_CITY","Meters","ArealInterpolation","1552630.52992547","ArealInterpolationGeometricCentroid","City","30","FeatureClassBased","FlipACoin","","CityCentroid","","","1",41.1463665689884,-74.7497292136762,"Relaxed;Soundex","TwoThousandTen","07300","5602","35084","07300","0","35620","3006","3","3723.00","037","34","9","Missing"
"Branford","CT","83111","","",58,"USCGeocoder",78.2731,1,"4.1","","","11","CityCentroid","Success","LOCATION_TYPE_CITY","Meters","ArealInterpolation","5403226.52105415","ArealInterpolationGeometricCentroid","City","50","FeatureClassBased","FlipACoin","","CityCentroid","","","1",41.2774086508853,-72.8150908723406,"Relaxed;Soundex","TwoThousandTen","07345","5602","","07310","0","35300","2009","2","1841.00","009","09","9","Missing"
"Bristol","RI","72893","","",59,"USCGeocoder",62.5001,1,"4.1","","","12","CountyCentroid","Success","LOCATION_TYPE_CITY","Meters","ArealInterpolation","53367227.9873435","ArealInterpolationGeometricCentroid","CountySubRegion","40","FeatureClassBased","FlipACoin","","CountySubdivisionCentroid","","","1",41.6761273165021,-71.2732870159551,"Relaxed;Soundex","TwoThousandTen","","5520","","09280","0","39300","1004","1","0307.00","001","44","9","Missing"
"Brookehaven","MS","72192A","","",60,"USCGeocoder",94.0554,1,"4.1","","","11","CityCentroid","Success","LOCATION_TYPE_CITY","Meters","ArealInterpolation","56282297.0889076","ArealInterpolationGeometricCentroid","City","46.3636363636364","FeatureClassBased","FlipACoin","","CityCentroid","","","1",31.5803552589862,-90.443235708722,"Relaxed;Soundex","TwoThousandTen","08820","","","91863","1","15020","4033","4","9506.00","085","28","9","Missing"
"Brookfield","CT","82771","","",61,"USCGeocoder",46.8738,1,"4.1","","","12","CountyCentroid","Success","LOCATION_TYPE_CITY","Meters","ArealInterpolation","52755557.9250923","ArealInterpolationGeometricCentroid","CountySubRegion","40","FeatureClassBased","FlipACoin","","CountySubdivisionCentroid","","","1",41.4674198259648,-73.3922005962036,"Relaxed;Soundex","TwoThousandTen","","1122","","08980","0","14860","3021","3","2052.00","001","09","9","Missing"
"Brown Falls","CT","65402","","",62,"USCGeocoder",15.6245,1,"4.1","","","11","CityCentroid","Success","LOCATION_TYPE_CITY","Meters","ArealInterpolation","5403226.52105415","ArealInterpolationGeometricCentroid","City","26","FeatureClassBased","FlipACoin","","CityCentroid","","","1",41.2774086508853,-72.8150908723406,"Relaxed;Soundex","TwoThousandTen","07345","5602","","07310","0","35300","2009","2","1841.00","009","09","9","Missing"
"Brownstown","MI","64734A","","",63,"USCGeocoder",62.3729,1,"4.1","","","11","CityCentroid","Success","LOCATION_TYPE_CITY","Meters","ArealInterpolation","2837648.79790133","ArealInterpolationGeometricCentroid","City","50","FeatureClassBased","FlipACoin","","CityCentroid","","","1",43.2113704307162,-82.9879178362573,"Relaxed;Soundex","TwoThousandTen","11180","","","","","","3037","3","9711.00","151","26","9","Missing"
"Burnaugh","KY","86089A","","",64,"USCGeocoder",62.4956,1,"4.1","","","11","CityCentroid","Success","LOCATION_TYPE_CITY","Meters","ArealInterpolation","21362010.1527836","ArealInterpolationGeometricCentroid","City","30","FeatureClassBased","FlipACoin","","CityCentroid","","","1",37.0045916893651,-84.652225504975,"Relaxed;Soundex","TwoThousandTen","","1642","","93256","1","43700","2009","2","9305.01","199","21","9","Missing"
"Canton","MA","70153B","","",65,"USCGeocoder",62.4677,1,"4.1","","","12","CountyCentroid","Success","LOCATION_TYPE_CITY","Meters","ArealInterpolation","50797131.0170704","ArealInterpolationGeometricCentroid","CountySubRegion","40","FeatureClassBased","FlipACoin","","CountySubdivisionCentroid","","","1",42.175193368818,-71.1265077747528,"Relaxed;Soundex","TwoThousandTen","","0740","14484","11315","0","14460","1011","1","4152.00","021","25","9","Missing"
"Canton","MA","64722","","",66,"USCGeocoder",15.5103,1,"4.1","","","12","CountyCentroid","Success","LOCATION_TYPE_CITY","Meters","ArealInterpolation","50797131.0170704","ArealInterpolationGeometricCentroid","CountySubRegion","40","FeatureClassBased","FlipACoin","","CountySubdivisionCentroid","","","1",42.175193368818,-71.1265077747528,"Relaxed;Soundex","TwoThousandTen","","0740","14484","11315","0","14460","1011","1","4152.00","021","25","9","Missing"
"Canton","MI","80067A","","",67,"USCGeocoder",47.3515,1,"4.1","","","11","CityCentroid","Success","LOCATION_TYPE_CITY","Meters","ArealInterpolation","2181949.66357231","ArealInterpolationGeometricCentroid","City","30","FeatureClassBased","FlipACoin","","CityCentroid","","","1",41.7550858719774,-84.7561842554008,"Relaxed;Soundex","TwoThousandTen","12760","","","12780","","","2020","2","0512.00","059","26","6","ResidenceCityOrZIPWithOneCensusTract"
"Canton","MI","64226","","",68,"USCGeocoder",15.5256,1,"4.1","","","11","CityCentroid","Success","LOCATION_TYPE_CITY","Meters","ArealInterpolation","2181949.66357231","ArealInterpolationGeometricCentroid","City","30","FeatureClassBased","FlipACoin","","CityCentroid","","","1",41.7550858719774,-84.7561842554008,"Relaxed;Soundex","TwoThousandTen","12760","","","12780","","","2020","2","0512.00","059","26","6","ResidenceCityOrZIPWithOneCensusTract"
"Canton","MI","73976","","",69,"USCGeocoder",15.8174,1,"4.1","","","11","CityCentroid","Success","LOCATION_TYPE_CITY","Meters","ArealInterpolation","2181949.66357231","ArealInterpolationGeometricCentroid","City","30","FeatureClassBased","FlipACoin","","CityCentroid","","","1",41.7550858719774,-84.7561842554008,"Relaxed;Soundex","TwoThousandTen","12760","","","12780","","","2020","2","0512.00","059","26","6","ResidenceCityOrZIPWithOneCensusTract"
"Canton","MI","71398","","",70,"USCGeocoder",0,1,"4.1","","","11","CityCentroid","Success","LOCATION_TYPE_CITY","Meters","ArealInterpolation","2181949.66357231","ArealInterpolationGeometricCentroid","City","30","FeatureClassBased","FlipACoin","","CityCentroid","","","1",41.7550858719774,-84.7561842554008,"Relaxed;Soundex","TwoThousandTen","12760","","","12780","","","2020","2","0512.00","059","26","6","ResidenceCityOrZIPWithOneCensusTract"
"Carmel","NY","74606","","",71,"USCGeocoder",78.1749,1,"4.1","","","11","CityCentroid","Success","LOCATION_TYPE_CITY","Meters","ArealInterpolation","26911482.055156","ArealInterpolationGeometricCentroid","City","50","FeatureClassBased","FlipACoin","","CityCentroid","","","1",41.4149412009981,-73.6854956038944,"Relaxed;Soundex","TwoThousandTen","12532","5602","35644","12529","0","35620","2027","2","0115.00","079","36","9","Missing"
"Carrolton","TX","73183","","",72,"USCGeocoder",125.0051,1,"4.1","","","11","CityCentroid","Success","LOCATION_TYPE_CITY","Meters","ArealInterpolation","96110615.0698331","ArealInterpolationGeometricCentroid","City","45.5555555555556","FeatureClassBased","FlipACoin","","CityCentroid","","","1",32.9884384587487,-96.9001374337117,"Relaxed;Soundex","TwoThousandTen","13024","1922","19124","90637","0","19100","1019","1","0216.11","121","48","9","Missing"
"Center Valley","PA","81799","","",73,"USCGeocoder",109.3737,1,"4.1","","","11","CityCentroid","Success","LOCATION_TYPE_CITY","Meters","ArealInterpolation","1397517.99356011","ArealInterpolationGeometricCentroid","City","50","FeatureClassBased","FlipACoin","","CityCentroid","","","1",40.1096123038889,-78.8043194532592,"Relaxed;Soundex","TwoThousandTen","12296","3680","","12296","1","43740","2041","2","0204.00","111","42","6","ResidenceCityOrZIPWithOneCensusTract"
"Charlottesville","WV","80422I","","",74,"USCGeocoder",62.5069,1,"4.1","","","11","CityCentroid","Success","LOCATION_TYPE_CITY","Meters","ArealInterpolation","1266521.88186175","ArealInterpolationGeometricCentroid","City","26","FeatureClassBased","FlipACoin","","CityCentroid","","","1",38.1254147385742,-81.2332493001614,"Relaxed;Soundex","TwoThousandTen","14630","","","93396","1","36060","2098","2","0208.00","019","54","9","Missing"
"Chatsworth","CA","90227","","",75,"USCGeocoder",62.198,1,"4.1","","","","Unknown","Unmatchable","LOCATION_TYPE_UNKNOWN","Unknown","NotAttempted","-1","NotAttempted","Unmatchable","0","FeatureClassBased","Unknown","","Unmatchable","","","0",0,0,"","","","","","","","","","","","","","",""
"Chelmsford","MA","72877K","","",76,"USCGeocoder",78.1259,1,"4.1","","","12","CountyCentroid","Success","LOCATION_TYPE_CITY","Meters","ArealInterpolation","59788240.8665109","ArealInterpolationGeometricCentroid","CountySubRegion","40","FeatureClassBased","FlipACoin","","CountySubdivisionCentroid","","","1",42.5999639184362,-71.3631189979447,"Relaxed;Soundex","TwoThousandTen","","0740","15764","13135","0","14460","1016","1","3171.01","017","25","9","Missing"
"Chelmsford","MA","70058O","","",77,"USCGeocoder",15.7583,1,"4.1","","","12","CountyCentroid","Success","LOCATION_TYPE_CITY","Meters","ArealInterpolation","59788240.8665109","ArealInterpolationGeometricCentroid","CountySubRegion","40","FeatureClassBased","FlipACoin","","CountySubdivisionCentroid","","","1",42.5999639184362,-71.3631189979447,"Relaxed;Soundex","TwoThousandTen","","0740","15764","13135","0","14460","1016","1","3171.01","017","25","9","Missing"
"Chelmsford","MA","70058F","","",78,"USCGeocoder",31.2417,1,"4.1","","","12","CountyCentroid","Success","LOCATION_TYPE_CITY","Meters","ArealInterpolation","59788240.8665109","ArealInterpolationGeometricCentroid","CountySubRegion","40","FeatureClassBased","FlipACoin","","CountySubdivisionCentroid","","","1",42.5999639184362,-71.3631189979447,"Relaxed;Soundex","TwoThousandTen","","0740","15764","13135","0","14460","1016","1","3171.01","017","25","9","Missing"
"Chelmsford","MA","70058Z","","",79,"USCGeocoder",15.6266,1,"4.1","","","12","CountyCentroid","Success","LOCATION_TYPE_CITY","Meters","ArealInterpolation","59788240.8665109","ArealInterpolationGeometricCentroid","CountySubRegion","40","FeatureClassBased","FlipACoin","","CountySubdivisionCentroid","","","1",42.5999639184362,-71.3631189979447,"Relaxed;Soundex","TwoThousandTen","","0740","15764","13135","0","14460","1016","1","3171.01","017","25","9","Missing"
"Chelmsford","MA","75297","","",80,"USCGeocoder",15.6228,1,"4.1","","","12","CountyCentroid","Success","LOCATION_TYPE_CITY","Meters","ArealInterpolation","59788240.8665109","ArealInterpolationGeometricCentroid","CountySubRegion","40","FeatureClassBased","FlipACoin","","CountySubdivisionCentroid","","","1",42.5999639184362,-71.3631189979447,"Relaxed;Soundex","TwoThousandTen","","0740","15764","13135","0","14460","1016","1","3171.01","017","25","9","Missing"
"Cheshire","CT","71846","","",81,"USCGeocoder",62.4937,1,"4.1","","","11","CityCentroid","Success","LOCATION_TYPE_CITY","Meters","ArealInterpolation","8726222.15165964","ArealInterpolationGeometricCentroid","City","50","FeatureClassBased","FlipACoin","","CityCentroid","","","1",41.5026010756991,-72.8992530563864,"Relaxed;Soundex","TwoThousandTen","14200","5602","","14160","0","35300","2031","2","3431.02","009","09","9","Missing"
"Cheshire","CT","75152","","",82,"USCGeocoder",0,1,"4.1","","","11","CityCentroid","Success","LOCATION_TYPE_CITY","Meters","ArealInterpolation","8726222.15165964","ArealInterpolationGeometricCentroid","City","50","FeatureClassBased","FlipACoin","","CityCentroid","","","1",41.5026010756991,-72.8992530563864,"Relaxed;Soundex","TwoThousandTen","14200","5602","","14160","0","35300","2031","2","3431.02","009","09","9","Missing"
"Chesire","CT","72877Q","","",83,"USCGeocoder",109.3593,1,"4.1","","","12","CountyCentroid","Success","LOCATION_TYPE_CITY","Meters","ArealInterpolation","86415356.8666833","ArealInterpolationGeometricCentroid","CountySubRegion","40","FeatureClassBased","FlipACoin","","CountySubdivisionCentroid","","","1",41.5113360940843,-72.9035971409733,"Relaxed;Soundex","TwoThousandTen","14200","5602","","14160","0","35300","1008","1","3431.02","009","09","9","Missing"
"Chester","ME","91198","","",84,"USCGeocoder",78.1097,1,"4.1","","","12","CountyCentroid","BrokenTie","LOCATION_TYPE_CITY","Meters","ArealInterpolation","118715430.268696","ArealInterpolationGeometricCentroid","CountySubRegion","40","FeatureClassBased","FlipACoin","","CountySubdivisionCentroid","","","2",45.4306311899168,-68.5179380861268,"Relaxed;Soundex","TwoThousandTen","","0730","","12525","0","12620","2048","2","0265.00","019","23","9","Missing"
"Chesterfield","MI","64304","","",85,"USCGeocoder",62.2913,1,"4.1","","","11","CityCentroid","Success","LOCATION_TYPE_CITY","Meters","ArealInterpolation","2550422.95417191","ArealInterpolationGeometricCentroid","City","26.6666666666667","FeatureClassBased","FlipACoin","","CityCentroid","","","1",43.9504638599895,-86.2181515488928,"Relaxed;Soundex","TwoThousandTen","19420","","","19440","","","2022","2","9507.00","105","26","9","Missing"
"Chesterfield","MI","75161B","","",86,"USCGeocoder",15.4979,1,"4.1","","","11","CityCentroid","Success","LOCATION_TYPE_CITY","Meters","ArealInterpolation","2550422.95417191","ArealInterpolationGeometricCentroid","City","26.6666666666667","FeatureClassBased","FlipACoin","","CityCentroid","","","1",43.9504638599895,-86.2181515488928,"Relaxed;Soundex","TwoThousandTen","19420","","","19440","","","2022","2","9507.00","105","26","9","Missing"
"Chesterfield","MI","74974","","",87,"USCGeocoder",15.6263,1,"4.1","","","11","CityCentroid","Success","LOCATION_TYPE_CITY","Meters","ArealInterpolation","2550422.95417191","ArealInterpolationGeometricCentroid","City","26.6666666666667","FeatureClassBased","FlipACoin","","CityCentroid","","","1",43.9504638599895,-86.2181515488928,"Relaxed;Soundex","TwoThousandTen","19420","","","19440","","","2022","2","9507.00","105","26","9","Missing"
"Chesterfield Township","MI","64715B","","",88,"USCGeocoder",15.9883,1,"4.1","","","11","CityCentroid","Success","LOCATION_TYPE_CITY","Meters","ArealInterpolation","2550422.95417191","ArealInterpolationGeometricCentroid","City","20","FeatureClassBased","FlipACoin","","CityCentroid","","","1",43.9504638599895,-86.2181515488928,"Relaxed;Soundex","TwoThousandTen","19420","","","19440","","","2022","2","9507.00","105","26","9","Missing"
"Chesterfield Township","MI","64715A","","",89,"USCGeocoder",0,1,"4.1","","","11","CityCentroid","Success","LOCATION_TYPE_CITY","Meters","ArealInterpolation","2550422.95417191","ArealInterpolationGeometricCentroid","City","20","FeatureClassBased","FlipACoin","","CityCentroid","","","1",43.9504638599895,-86.2181515488928,"Relaxed;Soundex","TwoThousandTen","19420","","","19440","","","2022","2","9507.00","105","26","9","Missing"
"Chesterfield Township","MI","64715C","","",90,"USCGeocoder",0,1,"4.1","","","11","CityCentroid","Success","LOCATION_TYPE_CITY","Meters","ArealInterpolation","2550422.95417191","ArealInterpolationGeometricCentroid","City","20","FeatureClassBased","FlipACoin","","CityCentroid","","","1",43.9504638599895,-86.2181515488928,"Relaxed;Soundex","TwoThousandTen","19420","","","19440","","","2022","2","9507.00","105","26","9","Missing"
"Chesterfield Twp.","MI","65270","","",91,"USCGeocoder",15.6217,1,"4.1","","","11","CityCentroid","Success","LOCATION_TYPE_CITY","Meters","ArealInterpolation","2550422.95417191","ArealInterpolationGeometricCentroid","City","22.5","FeatureClassBased","FlipACoin","","CityCentroid","","","1",43.9504638599895,-86.2181515488928,"Relaxed;Soundex","TwoThousandTen","19420","","","19440","","","2022","2","9507.00","105","26","9","Missing"
"Chicago","IL","64564","","",92,"USCGeocoder",140.4751,1,"4.1","","","11","CityCentroid","BrokenTie","LOCATION_TYPE_CITY","Meters","ArealInterpolation","615221315.852317","ArealInterpolationGeometricCentroid","City","50","FeatureClassBased","FlipACoin","","CityCentroid","","","3",41.8386102108281,-87.6866108713176,"Relaxed;Soundex","TwoThousandTen","14000","1602","16974","14000","0","16980","2021","2","8413.00","031","17","9","Missing"
"China Township","MI","75161C","","",93,"USCGeocoder",46.7176,1,"4.1","","","11","CityCentroid","Success","LOCATION_TYPE_CITY","Meters","ArealInterpolation","27608595.7522034","ArealInterpolationGeometricCentroid","City","22.3076923076923","FeatureClassBased","FlipACoin","","CityCentroid","","","1",43.5789250000807,-85.2972713346774,"Relaxed;Soundex","TwoThousandTen","13010","","","55600","1","13660","2012","2","9610.00","107","26","9","Missing"
"City of Industry","CA","71670A","","",94,"USCGeocoder",46.875,1,"4.1","","","","Unknown","Unmatchable","LOCATION_TYPE_UNKNOWN","Unknown","NotAttempted","-1","NotAttempted","Unmatchable","0","FeatureClassBased","Unknown","","Unmatchable","","","0",0,0,"","","","","","","","","","","","","","",""
"City of Industry","CA","70153","","",95,"USCGeocoder",62.4972,1,"4.1","","","","Unknown","Unmatchable","LOCATION_TYPE_UNKNOWN","Unknown","NotAttempted","-1","NotAttempted","Unmatchable","0","FeatureClassBased","Unknown","","Unmatchable","","","0",0,0,"","","","","","","","","","","","","","",""
"City of Industry","CA","74156","","",96,"USCGeocoder",47.078,1,"4.1","","","","Unknown","Unmatchable","LOCATION_TYPE_UNKNOWN","Unknown","NotAttempted","-1","NotAttempted","Unmatchable","0","FeatureClassBased","Unknown","","Unmatchable","","","0",0,0,"","","","","","","","","","","","","","",""
"City of Industry","CA","91609","","",97,"USCGeocoder",62.6586,1,"4.1","","","","Unknown","Unmatchable","LOCATION_TYPE_UNKNOWN","Unknown","NotAttempted","-1","NotAttempted","Unmatchable","0","FeatureClassBased","Unknown","","Unmatchable","","","0",0,0,"","","","","","","","","","","","","","",""
"Clackamas","OR","72250","","",98,"USCGeocoder",62.605,1,"4.1","","","11","CityCentroid","Success","LOCATION_TYPE_CITY","Meters","ArealInterpolation","2117182.10204756","ArealInterpolationGeometricCentroid","City","14.4444444444444","FeatureClassBased","FlipACoin","","CityCentroid","","","1",42.57641717871,-121.867752523988,"Relaxed;Soundex","TwoThousandTen","13050","","","90527","1","28900","3113","3","9702.00","035","41","6","ResidenceCityOrZIPWithOneCensusTract"
"Clackamas","OR","85647","","",99,"USCGeocoder",0,1,"4.1","","","11","CityCentroid","Success","LOCATION_TYPE_CITY","Meters","ArealInterpolation","2117182.10204756","ArealInterpolationGeometricCentroid","City","14.4444444444444","FeatureClassBased","FlipACoin","","CityCentroid","","","1",42.57641717871,-121.867752523988,"Relaxed;Soundex","TwoThousandTen","13050","","","90527","1","28900","3113","3","9702.00","035","41","6","ResidenceCityOrZIPWithOneCensusTract"
"Clark","NJ","80181","","",100,"USCGeocoder",93.6666,1,"4.1","","","12","CountyCentroid","Success","LOCATION_TYPE_CITY","Meters","ArealInterpolation","11640182.9509234","ArealInterpolationGeometricCentroid","CountySubRegion","40","FeatureClassBased","FlipACoin","","CountySubdivisionCentroid","","","1",40.6202118542883,-74.3137033807198,"Relaxed;Soundex","TwoThousandTen","","5602","35084","13150","0","35620","2013","2","0363.01","039","34","9","Missing"
"Clifton Park","NY","85893","","",101,"USCGeocoder",62.4789,1,"4.1","","","11","CityCentroid","Success","LOCATION_TYPE_CITY","Meters","ArealInterpolation","3934373.33989805","ArealInterpolationGeometricCentroid","City","35.4545454545455","FeatureClassBased","FlipACoin","","CityCentroid","","","1",42.9607518535598,-77.1354569424284,"Relaxed;Soundex","TwoThousandTen","16375","6840","","44864","0","40380","3005","3","0503.01","069","36","9","Missing"
"Clinton Township","MI","64715","","",102,"USCGeocoder",62.5818,1,"4.1","","","11","CityCentroid","Success","LOCATION_TYPE_CITY","Meters","ArealInterpolation","4903707.85428758","ArealInterpolationGeometricCentroid","City","28.6666666666667","FeatureClassBased","FlipACoin","","CityCentroid","","","1",42.0699360707558,-83.9686033182366,"Relaxed;Soundex","TwoThousandTen","16480","2162","","16500","1","10300","1019","1","0624.00","091","26","9","Missing"
"Clinton Township","MI","72524","","",103,"USCGeocoder",0,1,"4.1","","","11","CityCentroid","Success","LOCATION_TYPE_CITY","Meters","ArealInterpolation","4903707.85428758","ArealInterpolationGeometricCentroid","City","28.6666666666667","FeatureClassBased","FlipACoin","","CityCentroid","","","1",42.0699360707558,-83.9686033182366,"Relaxed;Soundex","TwoThousandTen","16480","2162","","16500","1","10300","1019","1","0624.00","091","26","9","Missing"
"Collinsville","Il","73676H","","",104,"USCGeocoder",78.238,1,"4.1","","","11","CityCentroid","Success","LOCATION_TYPE_CITY","Meters","ArealInterpolation","40182868.5656605","ArealInterpolationGeometricCentroid","City","50","FeatureClassBased","FlipACoin","","CityCentroid","","","1",38.6768141780054,-90.0056684686328,"Relaxed;Soundex","TwoThousandTen","15599","7040","","15612","0","41180","1025","1","4034.02","119","17","9","Missing"
"Commerce Township","MI","70565B","","",105,"USCGeocoder",93.7342,1,"4.1","","","12","CountyCentroid","Success","LOCATION_TYPE_CITY","Meters","ArealInterpolation","77450376.5317608","ArealInterpolationGeometricCentroid","CountySubRegion","40","FeatureClassBased","FlipACoin","","CountySubdivisionCentroid","","","1",42.5763286690546,-83.4957823589444,"Relaxed;Soundex","TwoThousandTen","","0870","47644","17640","0","19820","2016","2","1343.00","125","26","9","Missing"
"Concord","MA","70839A","","",106,"USCGeocoder",62.4753,1,"4.1","","","11","CityCentroid","Success","LOCATION_TYPE_CITY","Meters","ArealInterpolation","9286431.01086851","ArealInterpolationGeometricCentroid","City","46","FeatureClassBased","FlipACoin","","CityCentroid","","","1",42.4517570299806,-71.4035408529644,"Relaxed;Soundex","TwoThousandTen","75680","1122","15764","15060","0","14460","2013","2","3612.00","017","25","9","Missing"
"Corona","NY","81212","","",107,"USCGeocoder",93.7649,1,"4.1","","","11","CityCentroid","Success","LOCATION_TYPE_CITY","Meters","ArealInterpolation","35805284.4809852","ArealInterpolationGeometricCentroid","City","30","FeatureClassBased","FlipACoin","","CityCentroid","","","1",40.8812427360372,-73.0058846106625,"Relaxed;Soundex","TwoThousandTen","18157","5602","35004","10000","0","35620","1002","1","1583.21","103","36","9","Missing"
"Costa Mess","CA","82506G","","",108,"USCGeocoder",109.2409,1,"4.1","","","11","CityCentroid","Success","LOCATION_TYPE_CITY","Meters","ArealInterpolation","40661654.0996408","ArealInterpolationGeometricCentroid","City","10","FeatureClassBased","FlipACoin","","CityCentroid","","","1",33.6667651325262,-117.913504751712,"Relaxed;Soundex","TwoThousandTen","16532","4472","42044","90420","0","31100","1011","1","0639.05","059","06","9","Missing"
"Cranford","NJ","81155B","","",109,"USCGeocoder",46.8563,1,"4.1","","","11","CityCentroid","Success","LOCATION_TYPE_CITY","Meters","ArealInterpolation","3155926.78154892","ArealInterpolationGeometricCentroid","City","35","FeatureClassBased","FlipACoin","","CityCentroid","","","1",40.3102018000457,-74.5168017127966,"Relaxed;Soundex","TwoThousandTen","15520","5602","20764","15550","0","35620","1033","1","0087.00","023","34","6","ResidenceCityOrZIPWithOneCensusTract"
"Cromwell","CT","73676E","","",110,"USCGeocoder",46.8643,1,"4.1","","","12","CountyCentroid","BrokenTie","LOCATION_TYPE_CITY","Meters","ArealInterpolation","119954224.303347","ArealInterpolationGeometricCentroid","CountySubRegion","40","FeatureClassBased","FlipACoin","","CountySubdivisionCentroid","","","2",41.8472950195243,-73.329946788968,"Relaxed;Soundex","TwoThousandTen","","1122","","17240","1","45860","1067","1","2632.00","005","09","9","Missing"
"Cromwell","CT","71054C","","",111,"USCGeocoder",15.6286,1,"4.1","","","12","CountyCentroid","BrokenTie","LOCATION_TYPE_CITY","Meters","ArealInterpolation","119954224.303347","ArealInterpolationGeometricCentroid","CountySubRegion","40","FeatureClassBased","FlipACoin","","CountySubdivisionCentroid","","","2",41.8472950195243,-73.329946788968,"Relaxed;Soundex","TwoThousandTen","","1122","","17240","1","45860","1067","1","2632.00","005","09","9","Missing"
"Cudahes","WI","70880","","",112,"USCGeocoder",62.569,1,"4.1","","","11","CityCentroid","Success","LOCATION_TYPE_CITY","Meters","ArealInterpolation","8103639.50569534","ArealInterpolationGeometricCentroid","City","21.4285714285714","FeatureClassBased","FlipACoin","","CityCentroid","","","1",45.3159174169677,-91.653313039433,"Relaxed;Soundex","TwoThousandTen","14325","","","14325","","","4068","4","0010.02","005","55","9","Missing"
"Cumberland","RI","63399","","",113,"USCGeocoder",46.9946,1,"4.1","","","11","CityCentroid","Success","LOCATION_TYPE_CITY","Meters","ArealInterpolation","8807739.86959797","ArealInterpolationGeometricCentroid","City","50","FeatureClassBased","FlipACoin","","CityCentroid","","","1",41.9736214045043,-71.4603772585578,"Relaxed;Soundex","TwoThousandTen","20260","6480","","20080","0","39300","3002","3","0114.03","007","44","9","Missing"
"Cumberland","RI","85407","","",114,"USCGeocoder",0,1,"4.1","","","11","CityCentroid","Success","LOCATION_TYPE_CITY","Meters","ArealInterpolation","8807739.86959797","ArealInterpolationGeometricCentroid","City","50","FeatureClassBased","FlipACoin","","CityCentroid","","","1",41.9736214045043,-71.4603772585578,"Relaxed;Soundex","TwoThousandTen","20260","6480","","20080","0","39300","3002","3","0114.03","007","44","9","Missing"
"Dartmouth","MA","71763B","","",115,"USCGeocoder",62.3284,1,"4.1","","","12","CountyCentroid","Success","LOCATION_TYPE_CITY","Meters","ArealInterpolation","252613283.023157","ArealInterpolationGeometricCentroid","CountySubRegion","40","FeatureClassBased","FlipACoin","","CountySubdivisionCentroid","","","1",41.5799271955497,-70.9768409438207,"Relaxed;Soundex","TwoThousandTen","","0740","","16425","0","39300","2008","2","6533.04","005","25","9","Missing"
"Dewitt","NY","83305","","",116,"USCGeocoder",62.5107,1,"4.1","","","12","CountyCentroid","Success","LOCATION_TYPE_CITY","Meters","ArealInterpolation","87710537.0371466","ArealInterpolationGeometricCentroid","CountySubRegion","40","FeatureClassBased","FlipACoin","","CountySubdivisionCentroid","","","1",43.0503378488761,-76.0711884570741,"Relaxed;Soundex","TwoThousandTen","","0160","","20478","0","45060","3037","3","0146.00","067","36","9","Missing"
"DFW International Airport","TX","81952","","",117,"USCGeocoder",140.6541,1,"4.1","","","","Unknown","Unmatchable","LOCATION_TYPE_UNKNOWN","Unknown","NotAttempted","-1","NotAttempted","Unmatchable","0","FeatureClassBased","Unknown","","Unmatchable","","","0",0,0,"","","","","","","","","","","","","","",""
"Dora","FL","70750","","",118,"USCGeocoder",234.3809,1,"4.1","","","11","CityCentroid","Success","LOCATION_TYPE_CITY","Meters","ArealInterpolation","24210103","ArealInterpolationGeometricCentroid","City","46","FeatureClassBased","FlipACoin","","CityCentroid","","","1",28.8133494,-81.6334105,"Relaxed;Soundex","TwoThousandTen","","2020","","92262","0","36740","4009","4","0309.14","069","12","9","Missing"
"Dresher","PA","82848A","","",119,"USCGeocoder",78.1962,1,"4.1","","","12","CountyCentroid","Success","LOCATION_TYPE_CITY","Meters","ArealInterpolation","38463476.8923883","ArealInterpolationGeometricCentroid","CountySubRegion","40","FeatureClassBased","FlipACoin","","CountySubdivisionCentroid","","","1",41.4562297519054,-80.1397436835124,"Relaxed;Soundex","TwoThousandTen","","0240","","18536","0","49660","3030","3","0318.00","085","42","9","Missing"
"Dresher","PA","82634","","",120,"USCGeocoder",15.6896,1,"4.1","","","12","CountyCentroid","Success","LOCATION_TYPE_CITY","Meters","ArealInterpolation","38463476.8923883","ArealInterpolationGeometricCentroid","CountySubRegion","40","FeatureClassBased","FlipACoin","","CountySubdivisionCentroid","","","1",41.4562297519054,-80.1397436835124,"Relaxed;Soundex","TwoThousandTen","","0240","","18536","0","49660","3030","3","0318.00","085","42","9","Missing"
"Dresher","PA","82990","","",121,"USCGeocoder",15.6968,1,"4.1","","","12","CountyCentroid","Success","LOCATION_TYPE_CITY","Meters","ArealInterpolation","38463476.8923883","ArealInterpolationGeometricCentroid","CountySubRegion","40","FeatureClassBased","FlipACoin","","CountySubdivisionCentroid","","","1",41.4562297519054,-80.1397436835124,"Relaxed;Soundex","TwoThousandTen","","0240","","18536","0","49660","3030","3","0318.00","085","42","9","Missing"
"DuBois","PA","64330","","",122,"USCGeocoder",62.5033,1,"4.1","","","11","CityCentroid","Success","LOCATION_TYPE_CITY","Meters","ArealInterpolation","8330947.30855598","ArealInterpolationGeometricCentroid","City","50","FeatureClassBased","FlipACoin","","CityCentroid","","","1",41.1225083684864,-78.756448349658,"Relaxed;Soundex","TwoThousandTen","20136","","","67792","1","20180","1095","1","3303.00","033","42","9","Missing"
"DuBois","PA","65553","","",123,"USCGeocoder",15.5617,1,"4.1","","","11","CityCentroid","Success","LOCATION_TYPE_CITY","Meters","ArealInterpolation","8330947.30855598","ArealInterpolationGeometricCentroid","City","50","FeatureClassBased","FlipACoin","","CityCentroid","","","1",41.1225083684864,-78.756448349658,"Relaxed;Soundex","TwoThousandTen","20136","","","67792","1","20180","1095","1","3303.00","033","42","9","Missing"
"Dudley","MA","64267","","",124,"USCGeocoder",62.4943,1,"4.1","","","12","CountyCentroid","Success","LOCATION_TYPE_CITY","Meters","ArealInterpolation","56632946.0329235","ArealInterpolationGeometricCentroid","CountySubRegion","40","FeatureClassBased","FlipACoin","","CountySubdivisionCentroid","","","1",42.055014000375,-71.9352158429189,"Relaxed;Soundex","TwoThousandTen","","0740","","17685","0","49340","4030","4","7552.00","027","25","9","Missing"
"Earth City","MO","71529","","",125,"USCGeocoder",77.9249,1,"4.1","","","","Unknown","Unmatchable","LOCATION_TYPE_UNKNOWN","Unknown","NotAttempted","-1","NotAttempted","Unmatchable","0","FeatureClassBased","Unknown","","Unmatchable","","","0",0,0,"","","","","","","","","","","","","","",""
"Earth City","MO","71499A","","",126,"USCGeocoder",78.1456,1,"4.1","","","","Unknown","Unmatchable","LOCATION_TYPE_UNKNOWN","Unknown","NotAttempted","-1","NotAttempted","Unmatchable","0","FeatureClassBased","Unknown","","Unmatchable","","","0",0,0,"","","","","","","","","","","","","","",""
"Earth City","MO","71518","","",127,"USCGeocoder",78.0421,1,"4.1","","","","Unknown","Unmatchable","LOCATION_TYPE_UNKNOWN","Unknown","NotAttempted","-1","NotAttempted","Unmatchable","0","FeatureClassBased","Unknown","","Unmatchable","","","0",0,0,"","","","","","","","","","","","","","",""
"Earth City","MO","73434","","",128,"USCGeocoder",62.4628,1,"4.1","","","","Unknown","Unmatchable","LOCATION_TYPE_UNKNOWN","Unknown","NotAttempted","-1","NotAttempted","Unmatchable","0","FeatureClassBased","Unknown","","Unmatchable","","","0",0,0,"","","","","","","","","","","","","","",""
"East China","MI","65448","","",129,"USCGeocoder",78.0014,1,"4.1","","","11","CityCentroid","BrokenTie","LOCATION_TYPE_CITY","Meters","ArealInterpolation","8810245.07490182","ArealInterpolationGeometricCentroid","City","10","FeatureClassBased","FlipACoin","","CityCentroid","","","3",42.9463709038692,-85.6088133990148,"Relaxed;Soundex","TwoThousandTen","23980","3000","","23980","0","24340","3034","3","0123.00","081","26","9","Missing"
"East Durham","NY","81338","","",130,"USCGeocoder",93.7729,1,"4.1","","","11","CityCentroid","BrokenTie","LOCATION_TYPE_CITY","Meters","ArealInterpolation","2669855.92252383","ArealInterpolationGeometricCentroid","City","10","FeatureClassBased","FlipACoin","","CityCentroid","","","4",40.6431767908148,-73.6672048423067,"Relaxed;Soundex","TwoThousandTen","22876","5602","35004","34000","0","35620","5020","5","4121.00","059","36","9","Missing"
"East Gadsden","AL","64066","","",131,"USCGeocoder",46.693,1,"4.1","","","12","CountyCentroid","Success","LOCATION_TYPE_CITY","Meters","ArealInterpolation","953596751.919133","ArealInterpolationGeometricCentroid","CountySubRegion","40","FeatureClassBased","FlipACoin","","CountySubdivisionCentroid","","","1",31.1152461629817,-86.8904849548325,"Relaxed;Soundex","TwoThousandTen","","0450","","90927","","","1198","1","9698.00","053","01","9","Missing"
"East Granby","CT","72798","","",132,"USCGeocoder",78.1411,1,"4.1","","","12","CountyCentroid","Success","LOCATION_TYPE_CITY","Meters","ArealInterpolation","45752935.9575083","ArealInterpolationGeometricCentroid","CountySubRegion","40","FeatureClassBased","FlipACoin","","CountySubdivisionCentroid","","","1",41.9423840790157,-72.7409652890813,"Relaxed;Soundex","TwoThousandTen","","1122","","22070","0","25540","4017","4","4701.00","003","09","9","Missing"
"East Greenwich","RI","64213","","",133,"USCGeocoder",77.9589,1,"4.1","","","12","CountyCentroid","Success","LOCATION_TYPE_CITY","Meters","ArealInterpolation","43104528.9530738","ArealInterpolationGeometricCentroid","CountySubRegion","40","FeatureClassBased","FlipACoin","","CountySubdivisionCentroid","","","1",41.6360613079608,-71.5060307081409,"Relaxed;Soundex","TwoThousandTen","","5520","","22240","0","39300","2004","2","0209.03","003","44","9","Missing"
"East Greenwich","RI","74680","","",134,"USCGeocoder",15.5948,1,"4.1","","","12","CountyCentroid","Success","LOCATION_TYPE_CITY","Meters","ArealInterpolation","43104528.9530738","ArealInterpolationGeometricCentroid","CountySubRegion","40","FeatureClassBased","FlipACoin","","CountySubdivisionCentroid","","","1",41.6360613079608,-71.5060307081409,"Relaxed;Soundex","TwoThousandTen","","5520","","22240","0","39300","2004","2","0209.03","003","44","9","Missing"
"East Longmeadow","MA","73843","","",135,"USCGeocoder",62.5361,1,"4.1","","","12","CountyCentroid","Success","LOCATION_TYPE_CITY","Meters","ArealInterpolation","33867983.4555371","ArealInterpolationGeometricCentroid","CountySubRegion","40","FeatureClassBased","FlipACoin","","CountySubdivisionCentroid","","","1",42.0596336231398,-72.4990129993153,"Relaxed;Soundex","TwoThousandTen","","0740","","19645","0","44140","2005","2","8134.04","013","25","9","Missing"
"East Longmeadow","MA","73843A","","",136,"USCGeocoder",15.6223,1,"4.1","","","12","CountyCentroid","Success","LOCATION_TYPE_CITY","Meters","ArealInterpolation","33867983.4555371","ArealInterpolationGeometricCentroid","CountySubRegion","40","FeatureClassBased","FlipACoin","","CountySubdivisionCentroid","","","1",42.0596336231398,-72.4990129993153,"Relaxed;Soundex","TwoThousandTen","","0740","","19645","0","44140","2005","2","8134.04","013","25","9","Missing"
"East Longmeadow","MA","82572A","","",137,"USCGeocoder",15.6306,1,"4.1","","","12","CountyCentroid","Success","LOCATION_TYPE_CITY","Meters","ArealInterpolation","33867983.4555371","ArealInterpolationGeometricCentroid","CountySubRegion","40","FeatureClassBased","FlipACoin","","CountySubdivisionCentroid","","","1",42.0596336231398,-72.4990129993153,"Relaxed;Soundex","TwoThousandTen","","0740","","19645","0","44140","2005","2","8134.04","013","25","9","Missing"
"East Longmeadow","MA","82572","","",138,"USCGeocoder",0,1,"4.1","","","12","CountyCentroid","Success","LOCATION_TYPE_CITY","Meters","ArealInterpolation","33867983.4555371","ArealInterpolationGeometricCentroid","CountySubRegion","40","FeatureClassBased","FlipACoin","","CountySubdivisionCentroid","","","1",42.0596336231398,-72.4990129993153,"Relaxed;Soundex","TwoThousandTen","","0740","","19645","0","44140","2005","2","8134.04","013","25","9","Missing"
"East Windsor","CT","74483","","",139,"USCGeocoder",46.8801,1,"4.1","","","11","CityCentroid","Success","LOCATION_TYPE_CITY","Meters","ArealInterpolation","6650338.10380892","ArealInterpolationGeometricCentroid","City","10","FeatureClassBased","FlipACoin","","CityCentroid","","","1",41.5735140515566,-72.4918298448914,"Relaxed;Soundex","TwoThousandTen","22420","3280","","22490","0","25540","1016","1","5502.01","007","09","9","Missing"
"Eden Praire","MN","63856","","",140,"USCGeocoder",46.7417,1,"4.1","","","11","CityCentroid","BrokenTie","LOCATION_TYPE_CITY","Meters","ArealInterpolation","3159270.50287052","ArealInterpolationGeometricCentroid","City","10","FeatureClassBased","FlipACoin","","CityCentroid","","","2",45.3262388984472,-94.5453415708446,"Relaxed;Soundex","TwoThousandTen","18134","6980","","18134","0","41060","1038","1","0111.00","145","27","9","Missing"
"Edge Moor","DE","91353","","",141,"USCGeocoder",46.785,1,"4.1","","","11","CityCentroid","Success","LOCATION_TYPE_CITY","Meters","ArealInterpolation","5481931.51775151","ArealInterpolationGeometricCentroid","City","50","FeatureClassBased","FlipACoin","","CityCentroid","","","1",39.7548431759663,-75.5062634034292,"Relaxed;Soundex","TwoThousandTen","23240","6162","48864","90148","0","37980","2021","2","0107.02","003","10","9","Missing"
"Edison","NJ","80096","","",142,"USCGeocoder",78.0766,1,"4.1","","","12","CountyCentroid","Success","LOCATION_TYPE_CITY","Meters","ArealInterpolation","86517048.0549322","ArealInterpolationGeometricCentroid","CountySubRegion","40","FeatureClassBased","FlipACoin","","CountySubdivisionCentroid","","","1",40.5363062805218,-74.3689139779809,"Relaxed;Soundex","TwoThousandTen","45690","5602","20764","20230","0","35620","2006","2","0022.00","023","34","9","Missing"
"Edison","NJ","83246","","",143,"USCGeocoder",31.3144,1,"4.1","","","12","CountyCentroid","Success","LOCATION_TYPE_CITY","Meters","ArealInterpolation","86517048.0549322","ArealInterpolationGeometricCentroid","CountySubRegion","40","FeatureClassBased","FlipACoin","","CountySubdivisionCentroid","","","1",40.5363062805218,-74.3689139779809,"Relaxed;Soundex","TwoThousandTen","45690","5602","20764","20230","0","35620","2006","2","0022.00","023","34","9","Missing"
"Edison","NJ","91964","","",144,"USCGeocoder",31.3477,1,"4.1","","","12","CountyCentroid","Success","LOCATION_TYPE_CITY","Meters","ArealInterpolation","86517048.0549322","ArealInterpolationGeometricCentroid","CountySubRegion","40","FeatureClassBased","FlipACoin","","CountySubdivisionCentroid","","","1",40.5363062805218,-74.3689139779809,"Relaxed;Soundex","TwoThousandTen","45690","5602","20764","20230","0","35620","2006","2","0022.00","023","34","9","Missing"
"Eglon","WV","80422A","","",145,"USCGeocoder",109.3185,1,"4.1","","","","Unknown","Unmatchable","LOCATION_TYPE_UNKNOWN","Unknown","NotAttempted","-1","NotAttempted","Unmatchable","0","FeatureClassBased","Unknown","","Unmatchable","","","0",0,0,"","","","","","","","","","","","","","",""
"El Dorado Spring","MO","64515","","",146,"USCGeocoder",47.0214,1,"4.1","","","11","CityCentroid","Success","LOCATION_TYPE_CITY","Meters","ArealInterpolation","8051424.73088843","ArealInterpolationGeometricCentroid","City","10","FeatureClassBased","FlipACoin","","CityCentroid","","","1",37.8693671991246,-94.0196346265583,"Relaxed;Soundex","TwoThousandTen","21502","","","07696","","","2033","2","8702.00","039","29","6","ResidenceCityOrZIPWithOneCensusTract"
"EL Segundo","CA","82101","","",147,"USCGeocoder",93.7713,1,"4.1","","","11","CityCentroid","Success","LOCATION_TYPE_CITY","Meters","ArealInterpolation","14152141.7516006","ArealInterpolationGeometricCentroid","City","50","FeatureClassBased","FlipACoin","","CityCentroid","","","1",33.9169466121567,-118.402022323959,"Relaxed;Soundex","TwoThousandTen","22412","4472","31084","93100","0","31100","2023","2","6200.02","037","06","9","Missing"
"Eliot","ME","74206","","",148,"USCGeocoder",78.1783,1,"4.1","","","11","CityCentroid","Success","LOCATION_TYPE_CITY","Meters","ArealInterpolation","19703082.0391886","ArealInterpolationGeometricCentroid","City","46","FeatureClassBased","FlipACoin","","CityCentroid","","","1",43.1287177139722,-70.7952351238342,"Relaxed;Soundex","TwoThousandTen","70660","1122","","22955","0","38860","3049","3","0370.00","031","23","9","Missing"
"Enfield","CT","85298","","",149,"USCGeocoder",78.1364,1,"4.1","","","12","CountyCentroid","Success","LOCATION_TYPE_CITY","Meters","ArealInterpolation","88617681.1500463","ArealInterpolationGeometricCentroid","CountySubRegion","40","FeatureClassBased","FlipACoin","","CountySubdivisionCentroid","","","1",41.9839642990171,-72.5547538811041,"Relaxed;Soundex","TwoThousandTen","37770","3280","","25990","0","25540","2016","2","4808.00","003","09","9","Missing"
"Enfield","CT","64741","","",150,"USCGeocoder",15.6231,1,"4.1","","","12","CountyCentroid","Success","LOCATION_TYPE_CITY","Meters","ArealInterpolation","88617681.1500463","ArealInterpolationGeometricCentroid","CountySubRegion","40","FeatureClassBased","FlipACoin","","CountySubdivisionCentroid","","","1",41.9839642990171,-72.5547538811041,"Relaxed;Soundex","TwoThousandTen","37770","3280","","25990","0","25540","2016","2","4808.00","003","09","9","Missing"
"Enfield","CT","74893","","",151,"USCGeocoder",0,1,"4.1","","","12","CountyCentroid","Success","LOCATION_TYPE_CITY","Meters","ArealInterpolation","88617681.1500463","ArealInterpolationGeometricCentroid","CountySubRegion","40","FeatureClassBased","FlipACoin","","CountySubdivisionCentroid","","","1",41.9839642990171,-72.5547538811041,"Relaxed;Soundex","TwoThousandTen","37770","3280","","25990","0","25540","2016","2","4808.00","003","09","9","Missing"
"Erie","MI","72022","","",152,"USCGeocoder",62.4176,1,"4.1","","","12","CountyCentroid","Success","LOCATION_TYPE_CITY","Meters","ArealInterpolation","76623373.328424","ArealInterpolationGeometricCentroid","CountySubRegion","40","FeatureClassBased","FlipACoin","","CountySubdivisionCentroid","","","1",41.7760447705508,-83.4843231368762,"Relaxed;Soundex","TwoThousandTen","","0870","","26320","0","33780","3052","3","8337.00","115","26","9","Missing"
"Etiwanda","CA","85108","","",153,"USCGeocoder",46.872,1,"4.1","","","","Unknown","Unmatchable","LOCATION_TYPE_UNKNOWN","Unknown","NotAttempted","-1","NotAttempted","Unmatchable","0","FeatureClassBased","Unknown","","Unmatchable","","","0",0,0,"","","","","","","","","","","","","","",""
"Etters","PA","73426","","",154,"USCGeocoder",46.5647,1,"4.1","","","","Unknown","Unmatchable","LOCATION_TYPE_UNKNOWN","Unknown","NotAttempted","-1","NotAttempted","Unmatchable","0","FeatureClassBased","Unknown","","Unmatchable","","","0",0,0,"","","","","","","","","","","","","","",""
"Fairfield","NJ","74117","","",155,"USCGeocoder",125.1348,1,"4.1","","","12","CountyCentroid","Success","LOCATION_TYPE_CITY","Meters","ArealInterpolation","113829918.482046","ArealInterpolationGeometricCentroid","CountySubRegion","40","FeatureClassBased","FlipACoin","","CountySubdivisionCentroid","","","1",39.3716921207165,-75.2452764014914,"Relaxed;Soundex","TwoThousandTen","","5602","","22350","0","47220","1086","1","0104.01","011","34","9","Missing"
"Fairhaven","MA","71763","","",156,"USCGeocoder",46.8836,1,"4.1","","","12","CountyCentroid","Success","LOCATION_TYPE_CITY","Meters","ArealInterpolation","36489746.1924455","ArealInterpolationGeometricCentroid","CountySubRegion","40","FeatureClassBased","FlipACoin","","CountySubdivisionCentroid","","","1",41.6377002555272,-70.871490058871,"Relaxed;Soundex","TwoThousandTen","","0740","","22130","0","39300","3002","3","6551.00","005","25","9","Missing"
"Farmington","CT","74396","","",157,"USCGeocoder",47.0618,1,"4.1","","","12","CountyCentroid","Success","LOCATION_TYPE_CITY","Meters","ArealInterpolation","50681841.6972275","ArealInterpolationGeometricCentroid","CountySubRegion","40","FeatureClassBased","FlipACoin","","CountySubdivisionCentroid","","","1",41.6152811880235,-72.1432093332337,"Relaxed;Soundex","TwoThousandTen","","1122","","29910","0","35980","1024","1","7121.00","011","09","9","Missing"
"Farmington","CT","72789","","",158,"USCGeocoder",0,1,"4.1","","","12","CountyCentroid","Success","LOCATION_TYPE_CITY","Meters","ArealInterpolation","50681841.6972275","ArealInterpolationGeometricCentroid","CountySubRegion","40","FeatureClassBased","FlipACoin","","CountySubdivisionCentroid","","","1",41.6152811880235,-72.1432093332337,"Relaxed;Soundex","TwoThousandTen","","1122","","29910","0","35980","1024","1","7121.00","011","09","9","Missing"
"Fiskeville","RI","85598","","",159,"USCGeocoder",31.4266,1,"4.1","","","","Unknown","Unmatchable","LOCATION_TYPE_UNKNOWN","Unknown","NotAttempted","-1","NotAttempted","Unmatchable","0","FeatureClassBased","Unknown","","Unmatchable","","","0",0,0,"","","","","","","","","","","","","","",""
"Fond Du Lac","WI","74921","","",160,"USCGeocoder",62.578,1,"4.1","","","11","CityCentroid","Success","LOCATION_TYPE_CITY","Meters","ArealInterpolation","53458608.4582013","ArealInterpolationGeometricCentroid","City","50","FeatureClassBased","FlipACoin","","CityCentroid","","","1",43.7718866165866,-88.4391673559744,"Relaxed;Soundex","TwoThousandTen","26275","","","26275","0","22540","1003","1","0408.00","039","55","9","Missing"
"Foothill Ranch","CA","71054","","",161,"USCGeocoder",62.4191,1,"4.1","","","","Unknown","Unmatchable","LOCATION_TYPE_UNKNOWN","Unknown","NotAttempted","-1","NotAttempted","Unmatchable","0","FeatureClassBased","Unknown","","Unmatchable","","","0",0,0,"","","","","","","","","","","","","","",""
"Foxboro","MA","82254","","",162,"USCGeocoder",46.8175,1,"4.1","","","11","CityCentroid","Success","LOCATION_TYPE_CITY","Meters","ArealInterpolation","7569372.01284218","ArealInterpolationGeometricCentroid","City","32.8571428571429","FeatureClassBased","FlipACoin","","CityCentroid","","","1",42.0644233024466,-71.2482659245144,"Relaxed;Soundex","TwoThousandTen","24855","1122","14484","24820","0","14460","3002","3","4101.00","021","25","9","Missing"
"Foxboro","MA","71196","","",163,"USCGeocoder",15.6348,1,"4.1","","","11","CityCentroid","Success","LOCATION_TYPE_CITY","Meters","ArealInterpolation","7569372.01284218","ArealInterpolationGeometricCentroid","City","32.8571428571429","FeatureClassBased","FlipACoin","","CityCentroid","","","1",42.0644233024466,-71.2482659245144,"Relaxed;Soundex","TwoThousandTen","24855","1122","14484","24820","0","14460","3002","3","4101.00","021","25","9","Missing"
"Frametown","WV","80422D","","",164,"USCGeocoder",46.7901,1,"4.1","","","11","CityCentroid","Success","LOCATION_TYPE_CITY","Meters","ArealInterpolation","244541.185458183","ArealInterpolationGeometricCentroid","City","23.3333333333333","FeatureClassBased","FlipACoin","","CityCentroid","","","1",39.513550289867,-81.0618085205798,"Relaxed;Soundex","TwoThousandTen","29404","","","90469","","","4049","4","9619.00","095","54","6","ResidenceCityOrZIPWithOneCensusTract"
"Ft. Lauderdale","FL","70431","","",165,"USCGeocoder",62.5099,1,"4.1","","","","Unknown","Unmatchable","LOCATION_TYPE_UNKNOWN","Unknown","NotAttempted","-1","NotAttempted","Unmatchable","0","FeatureClassBased","Unknown","","Unmatchable","","","0",0,0,"","","","","","","","","","","","","","",""
"Ft. Smith","AR","72599","","",166,"USCGeocoder",78.3726,1,"4.1","","","","Unknown","Unmatchable","LOCATION_TYPE_UNKNOWN","Unknown","NotAttempted","-1","NotAttempted","Unmatchable","0","FeatureClassBased","Unknown","","Unmatchable","","","0",0,0,"","","","","","","","","","","","","","",""
"Gainsville","FL","75139A","","",167,"USCGeocoder",62.5922,1,"4.1","","","11","CityCentroid","Success","LOCATION_TYPE_CITY","Meters","ArealInterpolation","161909888.02349","ArealInterpolationGeometricCentroid","City","46","FeatureClassBased","FlipACoin","","CityCentroid","","","1",29.6818139336091,-82.3453579933111,"Relaxed;Soundex","TwoThousandTen","25175","2900","","91248","0","23540","2000","2","0012.03","001","12","9","Missing"
"Gainsville","GA","71670F","","",168,"USCGeocoder",218.768,1,"4.1","","","11","CityCentroid","Success","LOCATION_TYPE_CITY","Meters","ArealInterpolation","87726429","ArealInterpolationGeometricCentroid","City","46","FeatureClassBased","FlipACoin","","CityCentroid","","","1",34.2896583,-83.8298926,"Relaxed;Soundex","TwoThousandTen","","0120","","91260","0","23580","1065","1","0011.01","139","13","9","Missing"
"Georgetown","MA","73590","","",169,"USCGeocoder",78.0966,1,"4.1","","","12","CountyCentroid","Success","LOCATION_TYPE_CITY","Meters","ArealInterpolation","34058058.1132625","ArealInterpolationGeometricCentroid","CountySubRegion","40","FeatureClassBased","FlipACoin","","CountySubdivisionCentroid","","","1",42.7240032858422,-70.9821054458571,"Relaxed;Soundex","TwoThousandTen","","0740","37764","25625","0","14460","2026","2","2651.02","009","25","9","Missing"
"Glen Mills","PA","81449","","",170,"USCGeocoder",125.1768,1,"4.1","","","11","CityCentroid","Success","LOCATION_TYPE_CITY","Meters","ArealInterpolation","2524718.36354656","ArealInterpolationGeometricCentroid","City","27.7777777777778","FeatureClassBased","FlipACoin","","CityCentroid","","","1",39.8996263342701,-75.2919548804282,"Relaxed;Soundex","TwoThousandTen","29720","6162","37964","29720","0","37980","4003","4","4035.01","045","42","9","Missing"
"Glendale","NY","65293","","",171,"USCGeocoder",62.3435,1,"4.1","","","11","CityCentroid","Success","LOCATION_TYPE_CITY","Meters","ArealInterpolation","2516379.36242616","ArealInterpolationGeometricCentroid","City","30","FeatureClassBased","FlipACoin","","CityCentroid","","","1",40.8294445806892,-73.6377272155729,"Relaxed;Soundex","TwoThousandTen","29421","5602","35004","56000","0","35620","3011","3","5175.00","059","36","9","Missing"
"Goodlettsvile","TN","70674","","",172,"USCGeocoder",62.4948,1,"4.1","","","11","CityCentroid","Success","LOCATION_TYPE_CITY","Meters","ArealInterpolation","37080313.4610323","ArealInterpolationGeometricCentroid","City","46.9230769230769","FeatureClassBased","FlipACoin","","CityCentroid","","","1",36.3323277693273,-86.7032359933644,"Relaxed;Soundex","TwoThousandTen","29920","5360","","92066","0","34980","3048","3","0210.05","165","47","9","Missing"
"Grafton","MA","82237G","","",173,"USCGeocoder",140.3361,1,"4.1","","","12","CountyCentroid","Success","LOCATION_TYPE_CITY","Meters","ArealInterpolation","60391174.4569312","ArealInterpolationGeometricCentroid","CountySubRegion","40","FeatureClassBased","FlipACoin","","CountySubdivisionCentroid","","","1",42.2085585437709,-71.6837626184664,"Relaxed;Soundex","TwoThousandTen","","0740","","26430","0","49340","2028","2","7382.02","027","25","9","Missing"
"Grafton","VA","74638","","",174,"USCGeocoder",93.6942,1,"4.1","","","11","CityCentroid","Success","LOCATION_TYPE_CITY","Meters","ArealInterpolation","11409520.2954399","ArealInterpolationGeometricCentroid","City","32.8571428571429","FeatureClassBased","FlipACoin","","CityCentroid","","","1",38.7606263937545,-77.0978239010968,"Relaxed;Soundex","TwoThousandTen","33584","8872","47894","94207","0","47900","2005","2","4213.00","059","51","9","Missing"
"Grand Island","NY","70455","","",175,"USCGeocoder",46.7746,1,"4.1","","","11","CityCentroid","Success","LOCATION_TYPE_CITY","Meters","ArealInterpolation","4876748.21844983","ArealInterpolationGeometricCentroid","City","31.8181818181818","FeatureClassBased","FlipACoin","","CityCentroid","","","1",42.9868545659187,-78.9540147509854,"Relaxed;Soundex","TwoThousandTen","29894","1280","","29828","0","15380","2002","2","0073.02","029","36","9","Missing"
"Grand Island","NY","91187","","",176,"USCGeocoder",15.6285,1,"4.1","","","11","CityCentroid","Success","LOCATION_TYPE_CITY","Meters","ArealInterpolation","4876748.21844983","ArealInterpolationGeometricCentroid","City","31.8181818181818","FeatureClassBased","FlipACoin","","CityCentroid","","","1",42.9868545659187,-78.9540147509854,"Relaxed;Soundex","TwoThousandTen","29894","1280","","29828","0","15380","2002","2","0073.02","029","36","9","Missing"
"Grand Lake","MI","65258F","","",177,"USCGeocoder",46.8345,1,"4.1","","","11","CityCentroid","BrokenTie","LOCATION_TYPE_CITY","Meters","ArealInterpolation","9469180.84788239","ArealInterpolationGeometricCentroid","City","32.2222222222222","FeatureClassBased","FlipACoin","","CityCentroid","","","6",42.7545956154148,-84.7435386893324,"Relaxed;Soundex","TwoThousandTen","33420","4040","","33420","0","29620","1039","1","0204.02","045","26","9","Missing"
"Grand Ripids","MI","72198","","",178,"USCGeocoder",78.1151,1,"4.1","","","11","CityCentroid","Success","LOCATION_TYPE_CITY","Meters","ArealInterpolation","19866836.2275566","ArealInterpolationGeometricCentroid","City","31.8181818181818","FeatureClassBased","FlipACoin","","CityCentroid","","","1",42.9002357492524,-85.7564300133571,"Relaxed;Soundex","TwoThousandTen","34160","3000","","34160","0","24340","3000","3","0132.00","081","26","9","Missing"
"Green Mountain","NC","80236","","",179,"USCGeocoder",46.9742,1,"4.1","","","11","CityCentroid","Success","LOCATION_TYPE_CITY","Meters","ArealInterpolation","4585639.40887585","ArealInterpolationGeometricCentroid","City","28.4615384615384","FeatureClassBased","FlipACoin","","CityCentroid","","","1",36.25867408224,-80.2359557564306,"Relaxed;Soundex","TwoThousandTen","25880","3120","","92808","0","49180","2006","2","0029.01","067","37","9","Missing"
"Greenfield","MA","81973","","",180,"USCGeocoder",62.48,1,"4.1","","","11","CityCentroid","Success","LOCATION_TYPE_CITY","Meters","ArealInterpolation","56677217.7791381","ArealInterpolationGeometricCentroid","City","50","FeatureClassBased","FlipACoin","","CityCentroid","","","1",42.6140247965201,-72.5985476346032,"Relaxed;Soundex","TwoThousandTen","27100","8000","","27100","0","44140","1003","1","0411.00","011","25","9","Missing"
"Greenfield","MA","65314","","",181,"USCGeocoder",15.6234,1,"4.1","","","11","CityCentroid","Success","LOCATION_TYPE_CITY","Meters","ArealInterpolation","56677217.7791381","ArealInterpolationGeometricCentroid","City","50","FeatureClassBased","FlipACoin","","CityCentroid","","","1",42.6140247965201,-72.5985476346032,"Relaxed;Soundex","TwoThousandTen","27100","8000","","27100","0","44140","1003","1","0411.00","011","25","9","Missing"
"Greenfield","MA","81126J","","",182,"USCGeocoder",15.6285,1,"4.1","","","11","CityCentroid","Success","LOCATION_TYPE_CITY","Meters","ArealInterpolation","56677217.7791381","ArealInterpolationGeometricCentroid","City","50","FeatureClassBased","FlipACoin","","CityCentroid","","","1",42.6140247965201,-72.5985476346032,"Relaxed;Soundex","TwoThousandTen","27100","8000","","27100","0","44140","1003","1","0411.00","011","25","9","Missing"
"Greenville","WI","73102II","","",183,"USCGeocoder",109.3525,1,"4.1","","","11","CityCentroid","Success","LOCATION_TYPE_CITY","Meters","ArealInterpolation","29883610.2310961","ArealInterpolationGeometricCentroid","City","38","FeatureClassBased","FlipACoin","","CityCentroid","","","1",42.9619358994352,-88.0051327223378,"Relaxed;Soundex","TwoThousandTen","31175","5082","","31175","0","33340","1018","1","1202.02","079","55","9","Missing"
"Greenwood","ME","74204","","",184,"USCGeocoder",46.9129,1,"4.1","","","12","CountyCentroid","BrokenTie","LOCATION_TYPE_CITY","Meters","ArealInterpolation","125624937.67136","ArealInterpolationGeometricCentroid","CountySubRegion","40","FeatureClassBased","FlipACoin","","CountySubdivisionCentroid","","","3",45.2373275438941,-67.7356870699584,"Relaxed;Soundex","TwoThousandTen","","0730","","28660","","","3175","3","9551.00","029","23","9","Missing"
"Hamer","SC","81888","","",185,"USCGeocoder",46.6592,1,"4.1","","","12","CountyCentroid","Success","LOCATION_TYPE_CITY","Meters","ArealInterpolation","128239363.658175","ArealInterpolationGeometricCentroid","CountySubRegion","40","FeatureClassBased","FlipACoin","","CountySubdivisionCentroid","","","1",34.4237756575497,-79.3058639123644,"Relaxed;Soundex","TwoThousandTen","","0600","","91417","1","19900","2017","2","9702.00","033","45","9","Missing"
"Hamer","SC","91285","","",186,"USCGeocoder",15.7666,1,"4.1","","","12","CountyCentroid","Success","LOCATION_TYPE_CITY","Meters","ArealInterpolation","128239363.658175","ArealInterpolationGeometricCentroid","CountySubRegion","40","FeatureClassBased","FlipACoin","","CountySubdivisionCentroid","","","1",34.4237756575497,-79.3058639123644,"Relaxed;Soundex","TwoThousandTen","","0600","","91417","1","19900","2017","2","9702.00","033","45","9","Missing"
"Hanover","MD","82064H","","",187,"USCGeocoder",62.5512,1,"4.1","","","12","CountyCentroid","BrokenTie","LOCATION_TYPE_CITY","Meters","ArealInterpolation","1116889918.81618","ArealInterpolationGeometricCentroid","County","40","FeatureClassBased","FlipACoin","","CountyCentroid","","","2",33.128697290226,-90.5266210230044,"Relaxed;Soundex","TwoThousandTen","","","","","","","","","","053","","9","Missing"
"Hanover","MD","74944","","",188,"USCGeocoder",78.1358,1,"4.1","","","12","CountyCentroid","BrokenTie","LOCATION_TYPE_CITY","Meters","ArealInterpolation","1227151720.98417","ArealInterpolationGeometricCentroid","County","40","FeatureClassBased","FlipACoin","","CountyCentroid","","","2",37.7601514578364,-77.4908743139449,"Relaxed;Soundex","TwoThousandTen","","","","","","","","","","085","","9","Missing"
"Hanover Township","PA","70777","","",189,"USCGeocoder",93.7319,1,"4.1","","","11","CityCentroid","Success","LOCATION_TYPE_CITY","Meters","ArealInterpolation","9616855.38361037","ArealInterpolationGeometricCentroid","City","28.6666666666667","FeatureClassBased","FlipACoin","","CityCentroid","","","1",39.8117353870129,-76.9836772546848,"Relaxed;Soundex","TwoThousandTen","32448","9280","","32448","0","49620","3010","3","0222.00","133","42","9","Missing"
"Havre De Grace","MD","73450E","","",190,"USCGeocoder",78.1433,1,"4.1","","","11","CityCentroid","Success","LOCATION_TYPE_CITY","Meters","ArealInterpolation","18615706.8869275","ArealInterpolationGeometricCentroid","City","50","FeatureClassBased","FlipACoin","","CityCentroid","","","1",39.5469389756834,-76.1083541417808,"Relaxed;Soundex","TwoThousandTen","37600","8872","","90508","0","12580","4012","4","3061.00","025","24","9","Missing"
"Hazleton Township","PA","85875","","",191,"USCGeocoder",93.6914,1,"4.1","","","11","CityCentroid","Success","LOCATION_TYPE_CITY","Meters","ArealInterpolation","15569238.4389091","ArealInterpolationGeometricCentroid","City","30","FeatureClassBased","FlipACoin","","CityCentroid","","","1",40.9504247947216,-75.9723870781324,"Relaxed;Soundex","TwoThousandTen","33408","7560","","33408","0","42540","3002","3","2172.00","079","42","9","Missing"
"Hebronville","MA","71624","","",192,"USCGeocoder",46.5721,1,"4.1","","","","Unknown","Unmatchable","LOCATION_TYPE_UNKNOWN","Unknown","NotAttempted","-1","NotAttempted","Unmatchable","0","FeatureClassBased","Unknown","","Unmatchable","","","0",0,0,"","","","","","","","","","","","","","",""
"Highpoint","NC","72618","","",193,"USCGeocoder",250.0955,1,"4.1","","","11","CityCentroid","Success","LOCATION_TYPE_CITY","Meters","ArealInterpolation","143602935","ArealInterpolationGeometricCentroid","City","10","FeatureClassBased","FlipACoin","","CityCentroid","","","1",35.9854702,-79.9902426,"Relaxed;Soundex","TwoThousandTen","","0480","","91484","0","24660","2005","2","0144.11","081","37","9","Missing"
"Holden","MA","73197","","",194,"USCGeocoder",62.5662,1,"4.1","","","12","CountyCentroid","Success","LOCATION_TYPE_CITY","Meters","ArealInterpolation","94061394.636042","ArealInterpolationGeometricCentroid","CountySubRegion","40","FeatureClassBased","FlipACoin","","CountySubdivisionCentroid","","","1",42.3561456020537,-71.8607661463711,"Relaxed;Soundex","TwoThousandTen","","0740","","30560","0","49340","3016","3","7283.00","027","25","9","Missing"
"Holliston","MA","83227A","","",195,"USCGeocoder",62.5058,1,"4.1","","","12","CountyCentroid","Success","LOCATION_TYPE_CITY","Meters","ArealInterpolation","49360187.8504966","ArealInterpolationGeometricCentroid","CountySubRegion","40","FeatureClassBased","FlipACoin","","CountySubdivisionCentroid","","","1",42.1977050582008,-71.4449967851927,"Relaxed;Soundex","TwoThousandTen","","0740","15764","30700","0","14460","1000","1","3872.02","017","25","9","Missing"
"Howland","OH","70324C","","",196,"USCGeocoder",46.9001,1,"4.1","","","11","CityCentroid","Success","LOCATION_TYPE_CITY","Meters","ArealInterpolation","10451925.6215262","ArealInterpolationGeometricCentroid","City","50","FeatureClassBased","FlipACoin","","CityCentroid","","","1",41.2483245724847,-80.7443297971309,"Relaxed;Soundex","TwoThousandTen","36557","9320","","36554","0","49660","2008","2","9330.02","155","39","9","Missing"
"Huger","SC","81905","","",197,"USCGeocoder",31.1306,1,"4.1","","","12","CountyCentroid","BrokenTie","LOCATION_TYPE_CITY","Meters","ArealInterpolation","1868679234.86386","ArealInterpolationGeometricCentroid","County","40","FeatureClassBased","FlipACoin","","CountyCentroid","","","2",41.9159125988096,-101.135334616574,"Relaxed;Soundex","TwoThousandTen","","","","","","","","","","091","","9","Missing"
"Hunt Valley","MD","86011B","","",198,"USCGeocoder",78.1293,1,"4.1","","","","Unknown","Unmatchable","LOCATION_TYPE_UNKNOWN","Unknown","NotAttempted","-1","NotAttempted","Unmatchable","0","FeatureClassBased","Unknown","","Unmatchable","","","0",0,0,"","","","","","","","","","","","","","",""
"Huntingdon Beach","CA","70166C","","",199,"USCGeocoder",62.4809,1,"4.1","","","11","CityCentroid","BrokenTie","LOCATION_TYPE_CITY","Meters","ArealInterpolation","82602792.1947861","ArealInterpolationGeometricCentroid","City","34","FeatureClassBased","FlipACoin","","CityCentroid","","","2",33.6906209095223,-118.007230817067,"Relaxed;Soundex","TwoThousandTen","36000","4472","42044","92150","0","31100","5003","5","0994.13","059","06","9","Missing"
"Huntsville","NC","85440A","","",200,"USCGeocoder",46.5545,1,"4.1","","","12","CountyCentroid","Success","LOCATION_TYPE_CITY","Meters","ArealInterpolation","110683187.908748","ArealInterpolationGeometricCentroid","CountySubRegion","40","FeatureClassBased","FlipACoin","","CountySubdivisionCentroid","","","1",36.3152388623437,-79.981358383468,"Relaxed;Soundex","TwoThousandTen","","0480","","91564","0","24660","2030","2","0410.01","157","37","9","Missing"
"ImLay City","MI","64421","","",201,"USCGeocoder",62.4248,1,"4.1","","","11","CityCentroid","Success","LOCATION_TYPE_CITY","Meters","ArealInterpolation","6130400.91369995","ArealInterpolationGeometricCentroid","City","50","FeatureClassBased","FlipACoin","","CityCentroid","","","1",43.0168680157984,-83.0764493313077,"Relaxed;Soundex","TwoThousandTen","40320","2162","47644","40300","0","19820","3004","3","3395.00","087","26","9","Missing"
"Indianapolis","In","72854","","",202,"USCGeocoder",93.7166,1,"4.1","","","11","CityCentroid","Success","LOCATION_TYPE_CITY","Meters","ArealInterpolation","987768225.341962","ArealInterpolationGeometricCentroid","City","50","FeatureClassBased","FlipACoin","","CityCentroid","","","1",39.7771004586194,-86.146347674196,"Relaxed;Soundex","TwoThousandTen","36003","3480","","11512","0","26900","1008","1","3542.00","097","18","9","Missing"
"Institute","WV","81021","","",203,"USCGeocoder",109.2921,1,"4.1","","","","Unknown","Unmatchable","LOCATION_TYPE_UNKNOWN","Unknown","NotAttempted","-1","NotAttempted","Unmatchable","0","FeatureClassBased","Unknown","","Unmatchable","","","0",0,0,"","","","","","","","","","","","","","",""
"Irvine","PA","72333","","",204,"USCGeocoder",62.5709,1,"4.1","","","11","CityCentroid","Success","LOCATION_TYPE_CITY","Meters","ArealInterpolation","2459249.8144896","ArealInterpolationGeometricCentroid","City","36.6666666666667","FeatureClassBased","FlipACoin","","CityCentroid","","","1",40.7736801923948,-78.5501050518267,"Relaxed;Soundex","TwoThousandTen","37192","","","04888","1","20180","1047","1","3318.00","033","42","6","ResidenceCityOrZIPWithOneCensusTract"
"Jay","ME","64370","","",205,"USCGeocoder",46.9331,1,"4.1","","","12","CountyCentroid","Success","LOCATION_TYPE_CITY","Meters","ArealInterpolation","127421009.374126","ArealInterpolationGeometricCentroid","CountySubRegion","40","FeatureClassBased","FlipACoin","","CountySubdivisionCentroid","","","1",44.5306205551079,-70.2093663902053,"Relaxed;Soundex","TwoThousandTen","","0730","","35625","","","4012","4","9714.00","007","23","9","Missing"
"Jay","ME","70022","","",206,"USCGeocoder",15.794,1,"4.1","","","12","CountyCentroid","Success","LOCATION_TYPE_CITY","Meters","ArealInterpolation","127421009.374126","ArealInterpolationGeometricCentroid","CountySubRegion","40","FeatureClassBased","FlipACoin","","CountySubdivisionCentroid","","","1",44.5306205551079,-70.2093663902053,"Relaxed;Soundex","TwoThousandTen","","0730","","35625","","","4012","4","9714.00","007","23","9","Missing"
"Jay","ME","90212","","",207,"USCGeocoder",15.6271,1,"4.1","","","12","CountyCentroid","Success","LOCATION_TYPE_CITY","Meters","ArealInterpolation","127421009.374126","ArealInterpolationGeometricCentroid","CountySubRegion","40","FeatureClassBased","FlipACoin","","CountySubdivisionCentroid","","","1",44.5306205551079,-70.2093663902053,"Relaxed;Soundex","TwoThousandTen","","0730","","35625","","","4012","4","9714.00","007","23","9","Missing"
"Johnston","RI","75077","","",208,"USCGeocoder",109.3955,1,"4.1","","","12","CountyCentroid","BrokenTie","LOCATION_TYPE_CITY","Meters","ArealInterpolation","62974991.9800084","ArealInterpolationGeometricCentroid","CountySubRegion","40","FeatureClassBased","FlipACoin","","CountySubdivisionCentroid","","","2",41.8273625431507,-71.5200865989721,"Relaxed;Soundex","TwoThousandTen","","5520","","37720","0","39300","3006","3","0122.00","007","44","9","Missing"
"Johnston","RI","70892","","",209,"USCGeocoder",62.5004,1,"4.1","","","12","CountyCentroid","BrokenTie","LOCATION_TYPE_CITY","Meters","ArealInterpolation","91481768.5774761","ArealInterpolationGeometricCentroid","CountySubRegion","40","FeatureClassBased","FlipACoin","","CountySubdivisionCentroid","","","2",41.5225926491762,-71.3691031228593,"Relaxed;Soundex","TwoThousandTen","","5520","","36820","0","39300","3013","3","0413.00","005","44","9","Missing"
"King Of Prussia","PA","73102C","","",210,"USCGeocoder",156.2781,1,"4.1","","","11","CityCentroid","Success","LOCATION_TYPE_CITY","Meters","ArealInterpolation","22368994.4198366","ArealInterpolationGeometricCentroid","City","50","FeatureClassBased","FlipACoin","","CityCentroid","","","1",40.0962268602551,-75.3820882679995,"Relaxed;Soundex","TwoThousandTen","39736","6162","37964","79136","0","37980","2003","2","2058.05","091","42","9","Missing"
"LaGrange","GA","73468","","",211,"USCGeocoder",62.4976,1,"4.1","","","11","CityCentroid","Success","LOCATION_TYPE_CITY","Meters","ArealInterpolation","107865361.075641","ArealInterpolationGeometricCentroid","City","50","FeatureClassBased","FlipACoin","","CityCentroid","","","1",33.0294333835251,-85.0361005171241,"Relaxed;Soundex","TwoThousandTen","44340","","","91674","1","29300","1038","1","9608.00","285","13","9","Missing"
"LaGrange","GA","81182A","","",212,"USCGeocoder",0,1,"4.1","","","11","CityCentroid","Success","LOCATION_TYPE_CITY","Meters","ArealInterpolation","107865361.075641","ArealInterpolationGeometricCentroid","City","50","FeatureClassBased","FlipACoin","","CityCentroid","","","1",33.0294333835251,-85.0361005171241,"Relaxed;Soundex","TwoThousandTen","44340","","","91674","1","29300","1038","1","9608.00","285","13","9","Missing"
"LaGrange","NC","64265","","",213,"USCGeocoder",62.4875,1,"4.1","","","11","CityCentroid","Success","LOCATION_TYPE_CITY","Meters","ArealInterpolation","5988252.78904191","ArealInterpolationGeometricCentroid","City","10","FeatureClassBased","FlipACoin","","CityCentroid","","","1",35.3064198795509,-77.7888969444899,"Relaxed;Soundex","TwoThousandTen","36400","","","92144","1","28820","4064","4","0111.00","107","37","6","ResidenceCityOrZIPWithOneCensusTract"
"LaVergne","TN","73516","","",214,"USCGeocoder",46.8614,1,"4.1","","","11","CityCentroid","Success","LOCATION_TYPE_CITY","Meters","ArealInterpolation","65310394.6265337","ArealInterpolationGeometricCentroid","City","10","FeatureClassBased","FlipACoin","","CityCentroid","","","1",36.021011961889,-86.557341057948,"Relaxed;Soundex","TwoThousandTen","41200","5360","","90150","0","34980","2020","2","0401.04","149","47","9","Missing"
"LaVergne","TN","81726C","","",215,"USCGeocoder",15.6133,1,"4.1","","","11","CityCentroid","Success","LOCATION_TYPE_CITY","Meters","ArealInterpolation","65310394.6265337","ArealInterpolationGeometricCentroid","City","10","FeatureClassBased","FlipACoin","","CityCentroid","","","1",36.021011961889,-86.557341057948,"Relaxed;Soundex","TwoThousandTen","41200","5360","","90150","0","34980","2020","2","0401.04","149","47","9","Missing"
"LaVergne","TN","74219","","",216,"USCGeocoder",15.5488,1,"4.1","","","11","CityCentroid","Success","LOCATION_TYPE_CITY","Meters","ArealInterpolation","65310394.6265337","ArealInterpolationGeometricCentroid","City","10","FeatureClassBased","FlipACoin","","CityCentroid","","","1",36.021011961889,-86.557341057948,"Relaxed;Soundex","TwoThousandTen","41200","5360","","90150","0","34980","2020","2","0401.04","149","47","9","Missing"
"LaVergne","TN","81726A","","",217,"USCGeocoder",0,1,"4.1","","","11","CityCentroid","Success","LOCATION_TYPE_CITY","Meters","ArealInterpolation","65310394.6265337","ArealInterpolationGeometricCentroid","City","10","FeatureClassBased","FlipACoin","","CityCentroid","","","1",36.021011961889,-86.557341057948,"Relaxed;Soundex","TwoThousandTen","41200","5360","","90150","0","34980","2020","2","0401.04","149","47","9","Missing"
"LaVergne","TN","74717","","",218,"USCGeocoder",15.7277,1,"4.1","","","11","CityCentroid","Success","LOCATION_TYPE_CITY","Meters","ArealInterpolation","65310394.6265337","ArealInterpolationGeometricCentroid","City","10","FeatureClassBased","FlipACoin","","CityCentroid","","","1",36.021011961889,-86.557341057948,"Relaxed;Soundex","TwoThousandTen","41200","5360","","90150","0","34980","2020","2","0401.04","149","47","9","Missing"
"LaVergne","TN","64876","","",219,"USCGeocoder",15.6264,1,"4.1","","","11","CityCentroid","Success","LOCATION_TYPE_CITY","Meters","ArealInterpolation","65310394.6265337","ArealInterpolationGeometricCentroid","City","10","FeatureClassBased","FlipACoin","","CityCentroid","","","1",36.021011961889,-86.557341057948,"Relaxed;Soundex","TwoThousandTen","41200","5360","","90150","0","34980","2020","2","0401.04","149","47","9","Missing"
"Lenior","NC","81040B","","",220,"USCGeocoder",62.4995,1,"4.1","","","11","CityCentroid","Success","LOCATION_TYPE_CITY","Meters","ArealInterpolation","50901313.7310021","ArealInterpolationGeometricCentroid","City","36.6666666666667","FeatureClassBased","FlipACoin","","CityCentroid","","","1",35.9056639216138,-81.5269860210424,"Relaxed;Soundex","TwoThousandTen","37760","3290","","91924","0","25860","1005","1","0303.00","027","37","9","Missing"
"Leroy","NY","72987","","",221,"USCGeocoder",31.2505,1,"4.1","","","11","CityCentroid","Success","LOCATION_TYPE_CITY","Meters","ArealInterpolation","6969717.71555901","ArealInterpolationGeometricCentroid","City","10","FeatureClassBased","FlipACoin","","CityCentroid","","","1",42.9780159180267,-77.989953047519,"Relaxed;Soundex","TwoThousandTen","42026","6840","","42037","1","12860","4014","4","9512.00","037","36","9","Missing"
"Lester","PA","81145A","","",222,"USCGeocoder",62.4974,1,"4.1","","","","Unknown","Unmatchable","LOCATION_TYPE_UNKNOWN","Unknown","NotAttempted","-1","NotAttempted","Unmatchable","0","FeatureClassBased","Unknown","","Unmatchable","","","0",0,0,"","","","","","","","","","","","","","",""
"Lesueur","MN","70073","","",223,"USCGeocoder",46.8791,1,"4.1","","","11","CityCentroid","Success","LOCATION_TYPE_CITY","Meters","ArealInterpolation","14566979.6319071","ArealInterpolationGeometricCentroid","City","10","FeatureClassBased","FlipACoin","","CityCentroid","","","1",44.4699082216076,-93.9026040151434,"Relaxed;Soundex","TwoThousandTen","36746","","","","","","2015","2","9502.00","079","27","9","Missing"
"Letart","WV","83033","","",224,"USCGeocoder",78.1778,1,"4.1","","","12","CountyCentroid","Success","LOCATION_TYPE_CITY","Meters","ArealInterpolation","1867355518.19148","ArealInterpolationGeometricCentroid","County","40","FeatureClassBased","FlipACoin","","CountyCentroid","","","1",34.901140178968,-87.6540194638228,"Relaxed;Soundex","TwoThousandTen","","","","","","","","","","077","","9","Missing"
"Letart","WV","91318","","",225,"USCGeocoder",78.1205,1,"4.1","","","12","CountyCentroid","Success","LOCATION_TYPE_CITY","Meters","ArealInterpolation","1867355518.19148","ArealInterpolationGeometricCentroid","County","40","FeatureClassBased","FlipACoin","","CountyCentroid","","","1",34.901140178968,-87.6540194638228,"Relaxed;Soundex","TwoThousandTen","","","","","","","","","","077","","9","Missing"
"Lincoln","RI","64109","","",226,"USCGeocoder",93.7196,1,"4.1","","","12","CountyCentroid","Success","LOCATION_TYPE_CITY","Meters","ArealInterpolation","49082394.8800393","ArealInterpolationGeometricCentroid","CountySubRegion","40","FeatureClassBased","FlipACoin","","CountySubdivisionCentroid","","","1",41.9169421734559,-71.4504823191095,"Relaxed;Soundex","TwoThousandTen","","5520","","41500","0","39300","3005","3","0116.00","007","44","9","Missing"
"Lincoln","RI","71847","","",227,"USCGeocoder",15.7641,1,"4.1","","","12","CountyCentroid","Success","LOCATION_TYPE_CITY","Meters","ArealInterpolation","49082394.8800393","ArealInterpolationGeometricCentroid","CountySubRegion","40","FeatureClassBased","FlipACoin","","CountySubdivisionCentroid","","","1",41.9169421734559,-71.4504823191095,"Relaxed;Soundex","TwoThousandTen","","5520","","41500","0","39300","3005","3","0116.00","007","44","9","Missing"
"Linwood","NC","70717","","",228,"USCGeocoder",46.7749,1,"4.1","","","","Unknown","Unmatchable","LOCATION_TYPE_UNKNOWN","Unknown","NotAttempted","-1","NotAttempted","Unmatchable","0","FeatureClassBased","Unknown","","Unmatchable","","","0",0,0,"","","","","","","","","","","","","","",""
"Littleton","MA","64468","","",229,"USCGeocoder",78.2018,1,"4.1","","","11","CityCentroid","Success","LOCATION_TYPE_CITY","Meters","ArealInterpolation","9593435.83936371","ArealInterpolationGeometricCentroid","City","50","FeatureClassBased","FlipACoin","","CityCentroid","","","1",42.5352536007918,-71.4727398906667,"Relaxed;Soundex","TwoThousandTen","36020","1122","15764","35950","0","14460","3052","3","3241.01","017","25","9","Missing"
"Livingston","NJ","74429","","",230,"USCGeocoder",125.7136,1,"4.1","","","12","CountyCentroid","Success","LOCATION_TYPE_CITY","Meters","ArealInterpolation","36472058.3752797","ArealInterpolationGeometricCentroid","CountySubRegion","40","FeatureClassBased","FlipACoin","","CountySubdivisionCentroid","","","1",40.785655943548,-74.3291121230774,"Relaxed;Soundex","TwoThousandTen","","5602","35084","40890","0","35620","4007","4","0207.00","013","34","9","Missing"
"Livingston","NJ","70032","","",231,"USCGeocoder",15.6231,1,"4.1","","","12","CountyCentroid","Success","LOCATION_TYPE_CITY","Meters","ArealInterpolation","36472058.3752797","ArealInterpolationGeometricCentroid","CountySubRegion","40","FeatureClassBased","FlipACoin","","CountySubdivisionCentroid","","","1",40.785655943548,-74.3291121230774,"Relaxed;Soundex","TwoThousandTen","","5602","35084","40890","0","35620","4007","4","0207.00","013","34","9","Missing"
